order_id,restaurant_id,customer_id,carrier_id,customer_lat,customer_lon,date,time,is_peak_time,is_weekend,carrier_vehicle,shopping_cart,coupon_discount,order_price,shortest_distance_to_customer,travel_time_minutes,restaurant_rating,delivery_charges
ORD057034,REST0936,CUST13295,COUR1776,-37.8229273,144.9808521,2020-06-20,17:24:23,0,1,Motorbike,"[('cheesecake', 2), ('tender coconut ice cream', 1), ('banana chips', 2), ('mocha chingri', 2)]",0,122.08,5413,11,9.58,4.7296
ORD079938,REST1450,CUST00146,COUR0059,-37.8020621,144.9653646,2020-12-18,13:15:09,1,0,Motorbike,"[('rasgulla', 1), ('poha', 2)]",45,21.246,2687,5,7.71,4.6335
ORD211273,REST1450,CUST08503,COUR0136,-37.8163952,144.9381699,2020-02-17,07:19:07,0,0,Motorbike,"[('rasgulla', 2), ('poha', 2), ('kachori', 1), ('samosa', 1)]",0,81.53,2052,4,7.71,3.2905
ORD009241,REST0936,CUST11478,COUR0989,-37.8221988,144.9476227,2020-03-26,06:47:28,0,0,Car,"[('mocha chingri', 3), ('paratha', 3)]",10,77.841,2594,6,9.58,3.0872
ORD340665,REST1801,CUST05997,COUR0969,-37.8064736,144.9664353,2020-05-02,08:34:17,0,1,Motorbike,"[('tandoori chicken', 2), ('hyderabadi biryani', 3)]",0,60.72,1235,2,9.72,3.7126
ORD072108,REST1858,CUST07693,COUR4555,-37.8124496,145.0110445,2020-08-08,00:11:52,0,1,Motorbike,"[('appam', 2), ('kerala parotta', 3), ('mackerel fry', 2)]",45,58.267,3402,7,7.06,4.8615
ORD249322,REST0936,CUST10817,COUR0690,-37.808256,144.9566889,2020-01-29,06:15:49,0,0,Car,"[('saffron pilaf', 1), ('cheesecake', 1), ('begun pora', 1)]",10,54.621,2622,6,9.58,3.0247
ORD320987,REST0936,CUST00160,COUR2658,-37.8146136,145.0091926,2020-06-17,12:19:46,1,0,Car,"[('tender coconut ice cream', 1), ('paratha', 2), ('banana chips', 1)]",0,58.22,7420,18,9.58,6.0139
ORD234957,REST0936,CUST11315,COUR1837,-37.8023972,144.9633598,2020-03-11,18:43:30,1,0,Motorbike,"[('banana chips', 3), ('begun pora', 1), ('mocha chingri', 2), ('paratha', 3)]",45,82.324,3353,7,9.58,5.0073
ORD023573,REST0936,CUST07132,COUR3736,-37.8025337,144.9445452,2020-06-07,14:22:25,0,1,Motorbike,"[('begun pora', 3), ('banana chips', 3), ('cheesecake', 2), ('mocha chingri', 1)]",10,158.391,1511,3,9.58,4.1428
ORD215591,REST0936,CUST05783,COUR1617,-37.8095393,144.9397958,2020-08-25,16:25:03,0,0,Car,"[('saffron pilaf', 1), ('tender coconut ice cream', 1), ('begun pora', 2), ('cheesecake', 2)]",0,117.62,981,2,9.58,2.5233
ORD014524,REST1858,CUST10188,COUR1135,-37.8199366,144.9687322,2020-06-18,18:15:49,1,0,Bike,"[('crab toast', 1), ('appam', 2), ('roast beef', 3), ('kerala parotta', 3)]",0,150.65,1700,8,7.06,5.2877
ORD337847,REST1858,CUST12692,COUR3206,-37.8034028,144.9500796,2020-08-06,08:42:11,0,0,Bike,"[('beef fry', 2), ('appam', 3), ('roast beef', 3), ('fish', 1)]",0,161.73,4256,21,7.06,5.3439
ORD270890,REST0936,CUST11750,COUR3905,-37.8182141,144.9963236,2020-01-02,17:28:21,0,0,Motorbike,"[('saffron pilaf', 1), ('paratha', 3), ('banana chips', 1), ('begun pora', 1)]",45,52.855,6517,13,9.58,3.5121
ORD170383,REST1450,CUST04245,COUR4616,-37.8247418,144.9899126,2020-01-18,02:34:17,0,1,Car,"[('puri sabzi', 1), ('poha', 2), ('kachori', 2), ('samosa', 2)]",0,78.31,3561,9,7.71,4.861
ORD027700,REST1858,CUST01704,COUR0566,-37.826093,145.0017336,2020-11-21,06:47:28,0,1,Car,"[('fish', 1), ('beef fry', 1)]",0,27.65,2075,5,7.06,4.5641
ORD054937,REST1858,CUST11362,COUR4207,-37.8122868,144.962027,2020-06-24,01:15:09,0,0,Car,"[('beef fry', 1), ('fish', 1)]",0,27.65,2666,6,7.06,3.5175
ORD242012,REST1781,CUST07651,COUR0357,-37.8134275,144.9410974,2020-11-15,13:03:17,1,1,Motorbike,"[('burgers', 1), ('coffee', 1)]",10,25.713,2644,5,8.27,5.5945
ORD195286,REST1801,CUST05627,COUR2874,-37.8120843,144.9384611,2020-04-05,20:54:03,0,1,Bike,"[('chicken boneless biryani', 1), ('naan', 3)]",20,48.928,3014,15,9.72,4.9174
ORD272582,REST0936,CUST11773,COUR2951,-37.8197071,144.9706373,2020-12-05,16:17:08,0,1,Motorbike,"[('mocha chingri', 1), ('tender coconut ice cream', 3), ('cheesecake', 1)]",45,50.182,4348,9,9.58,4.4081
ORD261342,REST0936,CUST01439,COUR2297,-37.810922,144.9682307,2020-05-31,22:05:16,0,1,Motorbike,"[('saffron pilaf', 3), ('begun pora', 2), ('banana chips', 2), ('cheesecake', 2)]",10,165.186,3703,7,9.58,4.1856
ORD185856,REST1781,CUST07766,COUR0861,-37.8141989,144.9655156,2020-11-20,22:32:58,0,0,Motorbike,"[('chicken burger', 1), ('coffee', 1), ('veggie pizza', 1), ('peri peri chicken wings', 3)]",40,59.106,14,0,8.27,2.6816
ORD086953,REST1781,CUST07473,COUR2184,-37.8038037,145.0108462,2020-08-31,01:38:54,0,0,Bike,"[('beef burger', 3), ('chicken burger', 1)]",0,38.53,5293,26,8.27,5.4299
ORD139394,REST0936,CUST04558,COUR4054,-37.814471,144.9496471,2020-04-18,20:26:22,0,1,Motorbike,"[('begun pora', 2), ('saffron pilaf', 3), ('tender coconut ice cream', 2)]",45,87.67,1909,4,9.58,3.6509
ORD157341,REST1450,CUST02655,COUR1516,-37.8086023,144.9586157,2020-04-22,05:16:29,0,0,Motorbike,"[('samosa', 3), ('puri sabzi', 1), ('poha', 2)]",0,74.78,1595,3,7.71,3.199
ORD125690,REST1858,CUST04721,COUR4836,-37.8080849,144.9292147,2020-09-23,12:23:44,1,0,Motorbike,"[('fish', 3), ('appam', 3), ('kerala parotta', 2)]",10,124.299,6112,12,7.06,5.4853
ORD071235,REST1781,CUST06607,COUR4124,-37.8245088,144.9829143,2020-08-11,14:18:27,0,0,Bike,"[('beef burger', 3), ('pizza', 1), ('chicken burger', 2)]",20,59.2,2566,13,8.27,4.1475
ORD185868,REST1858,CUST11335,COUR2007,-37.8047029,144.9932568,2020-12-29,06:03:57,0,0,Car,"[('kerala parotta', 1), ('fish', 1)]",10,27.693,2388,6,7.06,3.5463
ORD164581,REST0936,CUST13029,COUR3493,-37.8124178,144.9536146,2020-04-10,14:54:03,0,0,Bike,"[('mocha chingri', 2), ('cheesecake', 3)]",0,76.25,2574,13,9.58,3.7406
ORD127184,REST1781,CUST06403,COUR2208,-37.8023697,145.0045989,2020-03-14,01:46:48,0,1,Car,"[('beef burger', 3), ('burgers', 1), ('pizza', 2), ('coffee', 1)]",45,56.254,4654,11,8.27,5.0465
ORD326069,REST1781,CUST07017,COUR2086,-37.8055395,144.955269,2020-02-15,21:05:56,0,1,Bike,"[('pizza', 1), ('coffee', 1), ('veggie pizza', 3)]",40,44.406,1660,8,8.27,4.3912
ORD147725,REST0936,CUST00529,COUR1083,-37.8161124,144.9624868,2020-12-13,07:30:59,0,1,Motorbike,"[('begun pora', 3), ('tender coconut ice cream', 1), ('cheesecake', 1), ('banana chips', 3)]",0,163.95,3346,7,9.58,4.1103
ORD094253,REST0936,CUST01506,COUR0954,-37.8176749,144.9517603,2020-10-23,16:40:52,0,0,Car,"[('paratha', 3), ('banana chips', 3), ('begun pora', 2), ('tender coconut ice cream', 1)]",0,155.5,2356,6,9.58,2.8928
ORD343502,REST1450,CUST07161,COUR4141,-37.8172189,145.0162981,2020-04-10,03:49:27,0,0,Car,"[('rasgulla', 1), ('poha', 3), ('kachori', 3)]",20,57.16,7058,17,7.71,4.461
ORD182888,REST1450,CUST10423,COUR0705,-37.8195356,144.9616516,2020-04-12,20:22:25,0,1,Car,"[('jalebi', 3), ('puri sabzi', 2)]",45,38.319,1414,3,7.71,4.3361
ORD201085,REST1450,CUST09615,COUR3769,-37.8228692,144.9393981,2020-12-13,15:13:50,0,1,Motorbike,"[('poha', 1), ('kachori', 2)]",0,24.66,1886,4,7.71,4.2723
ORD313199,REST1450,CUST08143,COUR2191,-37.8186939,145.0003434,2020-06-13,08:34:17,0,1,Car,"[('jalebi', 2), ('poha', 2), ('puri sabzi', 3), ('samosa', 3)]",10,120.942,4285,10,7.71,4.9511
ORD156185,REST1801,CUST05612,COUR2920,-37.8146922,144.9375458,2020-05-07,00:43:30,0,0,Bike,"[('hyderabadi biryani', 2), ('crispy chicken', 1)]",0,28.07,3068,15,9.72,4.069
ORD211669,REST1858,CUST10130,COUR3174,-37.8073131,144.959212,2020-04-25,23:48:07,0,1,Motorbike,"[('beef fry', 1), ('fish', 2), ('crab toast', 3)]",0,61.53,3205,6,7.06,4.6919
ORD121388,REST1450,CUST06778,COUR2048,-37.807405,144.9438853,2020-12-02,02:54:03,0,0,Bike,"[('jalebi', 2), ('puri sabzi', 1), ('rasgulla', 2)]",45,46.07,1773,9,7.71,4.0842
ORD303395,REST0936,CUST06766,COUR3224,-37.8050708,144.9723422,2020-03-26,21:01:58,0,0,Motorbike,"[('mocha chingri', 1), ('paratha', 3), ('tender coconut ice cream', 2)]",40,52.53,4106,8,9.58,3.2117
ORD115309,REST0936,CUST12579,COUR1297,-37.8190437,144.9526283,2020-12-31,13:03:17,1,0,Motorbike,"[('mocha chingri', 1), ('cheesecake', 1), ('saffron pilaf', 2)]",40,47.376,2527,5,9.58,4.4557
ORD060793,REST0936,CUST06142,COUR2348,-37.8070593,144.9559853,2020-05-31,23:12:31,0,1,Motorbike,"[('cheesecake', 1), ('saffron pilaf', 1), ('mocha chingri', 3), ('paratha', 1)]",40,62.1,2948,6,9.58,4.0794
ORD032166,REST1801,CUST07111,COUR4110,-37.8034831,144.9496043,2020-07-12,08:30:19,0,1,Bike,"[('chicken guntur', 2), ('tandoori chicken', 2)]",40,34.116,1364,7,9.72,4.2679
ORD017566,REST0936,CUST05747,COUR3513,-37.8186891,144.9664191,2020-04-10,05:32:18,0,0,Motorbike,"[('tender coconut ice cream', 1), ('banana chips', 1), ('saffron pilaf', 2), ('mocha chingri', 1)]",0,105.49,3948,8,9.58,3.5604
ORD345510,REST1781,CUST10757,COUR0098,-37.8095154,144.983081,2020-10-10,02:18:27,0,1,Motorbike,"[('beef burger', 2), ('pizza', 3)]",40,53.034,2151,4,8.27,3.9121
ORD025567,REST1801,CUST09979,COUR0776,-37.799587,144.9634088,2020-08-31,10:32:58,0,0,Car,"[('crispy chicken', 2), ('chicken guntur', 3), ('tandoori chicken', 1), ('hyderabadi biryani', 3)]",45,52.794,355,1,9.72,2.6371
ORD161149,REST1450,CUST03703,COUR2235,-37.8051976,144.9944969,2020-07-29,11:20:26,0,0,Bike,"[('kachori', 2), ('puri sabzi', 1), ('samosa', 2), ('poha', 2)]",40,46.986,4475,22,7.71,5.0492
ORD102900,REST1801,CUST09467,COUR2371,-37.8018117,144.9456606,2020-11-25,08:18:27,0,0,Motorbike,"[('crispy chicken', 3), ('chicken boneless biryani', 1)]",0,61.07,1572,3,9.72,3.0054
ORD188381,REST0936,CUST02314,COUR2572,-37.8221849,144.9515765,2020-07-24,13:03:17,1,0,Bike,"[('cheesecake', 3), ('begun pora', 3), ('paratha', 2)]",45,71.78,2890,14,9.58,5.5138
ORD337390,REST1858,CUST02764,COUR1325,-37.794305,144.9873975,2020-04-25,10:09:13,0,1,Motorbike,"[('kerala parotta', 2), ('roast beef', 2), ('mackerel fry', 1), ('appam', 3)]",0,142.13,3293,7,7.06,4.5053
ORD211923,REST0936,CUST12798,COUR0931,-37.7989805,144.9454345,2020-11-20,06:39:33,0,0,Car,"[('tender coconut ice cream', 1), ('paratha', 2), ('banana chips', 1), ('cheesecake', 3)]",0,95.93,1936,5,9.58,3.1352
ORD220768,REST1781,CUST02071,COUR3786,-37.800252,145.0095156,2020-04-18,01:23:04,0,1,Car,"[('beef burger', 3), ('coffee', 2), ('chicken burger', 2)]",45,52.927,5453,13,8.27,4.8763
ORD025636,REST1858,CUST03295,COUR4168,-37.8073886,144.9427395,2020-11-14,19:50:46,1,1,Bike,"[('fish', 3), ('appam', 3), ('beef fry', 1)]",0,121.15,4781,24,7.06,8.0149
ORD046246,REST1801,CUST08085,COUR2865,-37.8192852,145.0018656,2020-05-04,10:09:13,0,0,Car,"[('hyderabadi biryani', 3), ('chicken boneless biryani', 3), ('tandoori chicken', 1), ('chicken guntur', 2)]",40,77.388,5143,12,9.72,4.1342
ORD295732,REST0936,CUST02332,COUR2797,-37.8210654,144.9664847,2020-03-02,11:48:07,0,0,Motorbike,"[('cheesecake', 1), ('banana chips', 3), ('mocha chingri', 2), ('tender coconut ice cream', 1)]",0,128.81,4120,8,9.58,3.14
ORD222615,REST1781,CUST01268,COUR3713,-37.804112,144.9739368,2020-04-09,06:11:52,0,0,Motorbike,"[('chicken burger', 1), ('beef burger', 3)]",0,38.53,1727,3,8.27,3.1903
ORD028115,REST1801,CUST05873,COUR1786,-37.8175499,144.9554956,2020-08-06,06:55:23,0,0,Bike,"[('chicken boneless biryani', 2), ('naan', 2)]",20,56.832,2514,13,9.72,3.8193
ORD097434,REST1801,CUST12246,COUR0902,-37.8073281,144.9494117,2020-08-06,07:50:46,0,0,Car,"[('naan', 1), ('chicken guntur', 2), ('tandoori chicken', 2), ('crispy chicken', 1)]",40,49.482,1711,4,9.72,2.8654
ORD336796,REST1858,CUST10082,COUR3479,-37.8062082,144.9584161,2020-05-03,07:07:15,0,1,Car,"[('mackerel fry', 3), ('beef fry', 2), ('appam', 3)]",10,106.263,3258,8,7.06,4.7445
ORD300682,REST0936,CUST11931,COUR4318,-37.8163067,145.0135038,2020-01-06,03:37:34,0,0,Motorbike,"[('mocha chingri', 2), ('paratha', 1), ('cheesecake', 1), ('begun pora', 1)]",20,68.184,7933,16,9.58,4.1269
ORD270765,REST1781,CUST04191,COUR3290,-37.8260999,144.9847408,2020-10-27,15:09:53,0,0,Car,"[('beef burger', 2), ('peri peri chicken wings', 2), ('chicken burger', 1), ('veggie pizza', 2)]",0,84.38,2673,6,8.27,3.6266
ORD247747,REST0936,CUST04654,COUR4052,-37.8056758,144.9318674,2020-07-18,20:10:32,0,1,Car,"[('saffron pilaf', 3), ('paratha', 3), ('mocha chingri', 1), ('begun pora', 3)]",0,192.31,583,1,9.58,3.5574
ORD154799,REST1450,CUST01359,COUR0457,-37.8028793,144.9679583,2020-09-06,17:56:02,0,1,Car,"[('puri sabzi', 2), ('samosa', 2), ('rasgulla', 2)]",40,65.364,2712,7,7.71,4.5056
ORD199370,REST1858,CUST08297,COUR4300,-37.821115,144.9548862,2020-05-22,04:17:08,0,0,Motorbike,"[('kerala parotta', 2), ('mackerel fry', 3), ('beef fry', 2), ('crab toast', 3)]",0,103.06,2853,6,7.06,3.358
ORD205447,REST1450,CUST10253,COUR1362,-37.8117797,144.9634761,2020-09-06,10:13:11,0,1,Motorbike,"[('samosa', 3), ('jalebi', 2)]",40,35.106,1400,3,7.71,4.0277
ORD216443,REST0936,CUST02978,COUR3919,-37.7991095,144.9606913,2020-03-19,10:17:08,0,0,Motorbike,"[('cheesecake', 1), ('banana chips', 2)]",10,46.053,3276,7,9.58,3.297
ORD079290,REST1450,CUST01930,COUR2122,-37.824333,144.9754746,2020-01-20,15:17:48,0,0,Car,"[('puri sabzi', 1), ('rasgulla', 3), ('samosa', 3), ('poha', 1)]",40,79.374,2406,6,7.71,3.2211
ORD093653,REST0936,CUST01138,COUR0988,-37.8032079,145.0079329,2020-10-31,23:44:10,0,1,Motorbike,"[('mocha chingri', 1), ('tender coconut ice cream', 2)]",10,52.983,7461,15,9.58,5.0842
ORD282711,REST1781,CUST01816,COUR4794,-37.8257611,144.9601989,2020-12-03,13:27:01,1,0,Car,"[('beef burger', 2), ('coffee', 3), ('burgers', 2)]",0,97.77,1784,4,8.27,4.5929
ORD244307,REST1450,CUST02886,COUR1961,-37.8041542,144.9642024,2020-08-29,11:08:34,0,1,Bike,"[('jalebi', 1), ('puri sabzi', 3)]",0,69.26,2426,12,7.71,4.5765
ORD207683,REST0936,CUST12914,COUR3313,-37.8249823,144.9289443,2020-02-27,09:57:21,0,0,Bike,"[('paratha', 3), ('mocha chingri', 3), ('cheesecake', 1)]",10,89.154,7220,36,9.58,6.3309
ORD047008,REST0936,CUST03167,COUR0681,-37.8090958,144.986353,2020-03-25,17:36:15,0,0,Car,"[('banana chips', 2), ('begun pora', 1)]",10,56.844,5053,12,9.58,3.9173
ORD150215,REST1781,CUST10344,COUR1065,-37.8049874,144.9723977,2020-01-10,19:11:12,1,0,Bike,"[('chicken burger', 3), ('peri peri chicken wings', 3), ('mango salad', 1)]",0,113.27,1751,9,8.27,5.2846
ORD268717,REST1858,CUST13138,COUR3714,-37.8130118,144.9762313,2020-10-26,05:04:36,0,0,Car,"[('kerala parotta', 1), ('mackerel fry', 3), ('crab toast', 1)]",20,45.184,1436,3,7.06,3.0929
ORD264891,REST0936,CUST12839,COUR3229,-37.7999692,144.9351234,2020-11-13,08:34:17,0,0,Car,"[('paratha', 3), ('mocha chingri', 3), ('banana chips', 1)]",0,105.79,4247,10,9.58,3.554
ORD226554,REST1801,CUST09736,COUR1312,-37.808393,144.9593275,2020-12-07,19:15:09,1,0,Car,"[('tandoori chicken', 2), ('hyderabadi biryani', 2), ('panner tikka', 3), ('naan', 2)]",0,97.2,1189,3,9.72,4.4248
ORD181830,REST0936,CUST11597,COUR4862,-37.8076153,144.9703478,2020-12-12,05:16:29,0,1,Motorbike,"[('banana chips', 2), ('mocha chingri', 2), ('begun pora', 1), ('tender coconut ice cream', 1)]",0,121.5,3643,7,9.58,4.4235
ORD026697,REST1781,CUST12697,COUR4725,-37.8039516,144.9498422,2020-05-20,09:29:40,0,0,Bike,"[('peri peri chicken wings', 1), ('pizza', 1), ('coffee', 2)]",0,87.5,2369,12,8.27,3.8021
ORD325322,REST1450,CUST02574,COUR1672,-37.802779,144.9592497,2020-02-03,03:17:48,0,0,Car,"[('puri sabzi', 3), ('rasgulla', 2), ('poha', 3), ('jalebi', 3)]",0,158.32,2353,6,7.71,3.1336
ORD136438,REST1781,CUST09976,COUR0586,-37.8206992,144.9548043,2020-05-09,09:21:45,0,1,Car,"[('burgers', 2), ('mango salad', 2)]",45,31.548,1599,4,8.27,4.1885
ORD121440,REST1450,CUST01018,COUR2236,-37.8024029,144.9269069,2020-01-30,05:24:23,0,0,Bike,"[('jalebi', 3), ('puri sabzi', 3), ('rasgulla', 1), ('poha', 2)]",0,128.03,3307,17,7.71,4.5904
ORD065583,REST1858,CUST09161,COUR1349,-37.8125914,145.0122258,2020-09-02,23:36:15,0,0,Car,"[('crab toast', 1), ('beef fry', 1), ('appam', 1)]",0,36.25,3447,8,7.06,3.517
ORD037674,REST1781,CUST08121,COUR2689,-37.8186647,145.0003489,2020-01-25,17:36:15,0,1,Motorbike,"[('coffee', 3), ('beef burger', 2)]",0,86.41,3595,7,8.27,4.4383
ORD122263,REST1450,CUST08591,COUR4172,-37.8209066,144.9620724,2020-03-08,10:05:16,0,1,Bike,"[('jalebi', 2), ('puri sabzi', 3), ('poha', 1), ('rasgulla', 2)]",40,78.942,988,5,7.71,4.3413
ORD325880,REST1781,CUST03539,COUR2175,-37.8150414,144.9917019,2020-03-30,12:19:46,1,0,Motorbike,"[('pizza', 3), ('coffee', 3), ('chicken burger', 2), ('burgers', 1)]",40,101.304,2897,6,8.27,4.919
ORD258783,REST1781,CUST12343,COUR3123,-37.8117664,144.9638161,2020-01-16,10:44:50,0,0,Bike,"[('peri peri chicken wings', 3), ('mango salad', 3), ('pizza', 3), ('burgers', 1)]",10,179.856,473,2,8.27,2.9012
ORD062737,REST1781,CUST13864,COUR1119,-37.8166592,144.9697714,2020-08-31,18:03:57,1,0,Motorbike,"[('veggie pizza', 3), ('coffee', 1), ('chicken burger', 1)]",0,62.38,889,2,8.27,4.553
ORD163972,REST1450,CUST09110,COUR3609,-37.8190226,144.9540493,2020-03-26,07:54:43,0,0,Motorbike,"[('puri sabzi', 2), ('poha', 2)]",10,50.526,87,0,7.71,2.9262
ORD337004,REST1801,CUST12101,COUR0332,-37.8244037,145.0129522,2020-02-06,22:40:52,0,0,Bike,"[('hyderabadi biryani', 2), ('chicken boneless biryani', 3), ('panner tikka', 2), ('chicken guntur', 3)]",20,99.432,6473,32,9.72,5.5427
ORD232548,REST1450,CUST04363,COUR3616,-37.8230066,144.9876456,2020-05-12,18:00:00,1,0,Motorbike,"[('jalebi', 1), ('poha', 2), ('puri sabzi', 1), ('rasgulla', 1)]",0,68.43,3319,7,7.71,4.978
ORD159042,REST1781,CUST03231,COUR3871,-37.8155841,144.9452766,2020-08-19,20:58:01,0,0,Bike,"[('coffee', 3), ('mango salad', 2), ('veggie pizza', 1), ('chicken burger', 3)]",0,159.62,2155,11,8.27,3.6893
ORD034682,REST1801,CUST02323,COUR2562,-37.8241828,144.9632211,2020-04-30,15:37:34,0,0,Bike,"[('crispy chicken', 1), ('chicken boneless biryani', 3), ('panner tikka', 2)]",20,74.568,3201,16,9.72,3.8325
ORD242756,REST1858,CUST12300,COUR2562,-37.8116827,144.9563755,2020-11-17,23:20:26,0,0,Bike,"[('appam', 3), ('mackerel fry', 1), ('fish', 2)]",0,105.83,3309,17,7.06,4.1961
ORD107354,REST0936,CUST12144,COUR0031,-37.8201595,144.9650784,2020-01-31,05:44:10,0,0,Car,"[('cheesecake', 3), ('paratha', 1)]",0,47.27,3891,9,9.58,3.5623
ORD324980,REST1858,CUST13447,COUR0641,-37.8253357,144.9816501,2020-04-29,05:32:18,0,0,Car,"[('roast beef', 1), ('kerala parotta', 1), ('crab toast', 2)]",0,46.38,738,2,7.06,3.0142
ORD238854,REST1801,CUST12078,COUR0805,-37.8171949,144.9645119,2020-03-18,22:21:05,0,0,Bike,"[('chicken guntur', 1), ('panner tikka', 3)]",45,15.406,2191,11,9.72,3.4457
ORD020408,REST1858,CUST01837,COUR4619,-37.8219931,145.0121695,2020-05-19,00:11:52,0,0,Car,"[('mackerel fry', 2), ('kerala parotta', 1), ('roast beef', 2), ('appam', 1)]",45,55.473,3055,7,7.06,3.858
ORD277454,REST1781,CUST03407,COUR0191,-37.8115568,144.9935852,2020-07-11,04:44:50,0,1,Motorbike,"[('veggie pizza', 2), ('beef burger', 3)]",0,44.99,2964,6,8.27,4.3749
ORD105118,REST1801,CUST10896,COUR2054,-37.8153988,144.9574889,2020-07-20,03:37:34,0,0,Bike,"[('panner tikka', 2), ('hyderabadi biryani', 3)]",0,35.24,2232,11,9.72,3.3788
ORD161464,REST1801,CUST09699,COUR4651,-37.8073824,145.0077081,2020-12-14,05:32:18,0,0,Motorbike,"[('chicken boneless biryani', 2), ('chicken guntur', 1), ('panner tikka', 1)]",0,61.09,5045,10,9.72,3.8095
ORD093619,REST1450,CUST09633,COUR0754,-37.8030153,144.9930485,2020-05-11,17:24:23,0,0,Bike,"[('poha', 3), ('kachori', 2), ('samosa', 2)]",0,66.92,4631,23,7.71,5.2104
ORD304028,REST0936,CUST03865,COUR2634,-37.8159539,144.9865358,2020-07-08,20:26:22,0,0,Motorbike,"[('banana chips', 1), ('begun pora', 1), ('paratha', 1)]",40,32.052,5644,11,9.58,3.6378
ORD257090,REST1450,CUST11378,COUR4346,-37.8104385,144.9493567,2020-09-05,20:46:09,0,1,Car,"[('samosa', 2), ('jalebi', 3), ('kachori', 2), ('poha', 2)]",20,71.032,1165,3,7.71,4.12
ORD183530,REST1858,CUST02200,COUR0131,-37.8114334,144.9513213,2020-12-15,08:02:38,0,0,Car,"[('roast beef', 3), ('appam', 1), ('kerala parotta', 2)]",10,100.152,3836,9,7.06,4.1407
ORD273948,REST0936,CUST01341,COUR2317,-37.8232964,144.969899,2020-12-27,07:34:56,0,1,Bike,"[('paratha', 1), ('banana chips', 1)]",40,17.316,4447,22,9.58,6.1183
ORD014884,REST1450,CUST04074,COUR2050,-37.8210436,144.9836908,2020-12-11,08:06:35,0,0,Motorbike,"[('poha', 3), ('puri sabzi', 1), ('samosa', 3), ('rasgulla', 2)]",0,127.02,3009,6,7.71,3.4168
ORD288179,REST1781,CUST00362,COUR2945,-37.82014,144.9824864,2020-08-27,00:00:00,0,0,Motorbike,"[('coffee', 3), ('veggie pizza', 2), ('burgers', 3), ('pizza', 1)]",10,114.876,2290,5,8.27,2.8048
ORD066279,REST1781,CUST10155,COUR4958,-37.8176375,144.9955689,2020-03-17,20:02:38,0,0,Car,"[('chicken burger', 1), ('peri peri chicken wings', 3), ('mango salad', 2)]",0,112.43,3260,8,8.27,3.2588
ORD212779,REST1781,CUST00763,COUR1127,-37.8181136,144.9613614,2020-12-23,04:17:08,0,0,Motorbike,"[('peri peri chicken wings', 3), ('mango salad', 2), ('veggie pizza', 2)]",0,118.89,899,2,8.27,2.7703
ORD088555,REST1450,CUST02506,COUR2346,-37.8133428,144.9436272,2020-06-05,00:23:44,0,0,Bike,"[('jalebi', 2), ('kachori', 2)]",45,20.053,1440,7,7.71,3.7189
ORD159477,REST1781,CUST06332,COUR0910,-37.8063982,144.9590658,2020-01-22,07:03:17,0,0,Motorbike,"[('pizza', 3), ('chicken burger', 2), ('veggie pizza', 3), ('peri peri chicken wings', 1)]",20,112.184,1281,3,8.27,2.8196
ORD188385,REST1801,CUST02764,COUR1082,-37.794305,144.9873975,2020-09-01,18:27:41,1,0,Bike,"[('naan', 3), ('panner tikka', 3), ('hyderabadi biryani', 2), ('tandoori chicken', 1)]",45,50.116,3213,16,9.72,5.6197
ORD035914,REST1781,CUST05090,COUR3535,-37.8210423,144.9551189,2020-04-16,06:35:36,0,0,Car,"[('veggie pizza', 1), ('beef burger', 1), ('pizza', 3)]",45,48.791,1633,4,8.27,3.1595
ORD168644,REST0936,CUST05160,COUR2334,-37.8251688,144.9567901,2020-05-15,21:41:32,0,0,Motorbike,"[('mocha chingri', 3), ('cheesecake', 2)]",20,66.36,3350,7,9.58,3.5048
ORD324870,REST1781,CUST10366,COUR2425,-37.8252026,144.992677,2020-04-12,02:42:11,0,1,Bike,"[('pizza', 3), ('veggie pizza', 2)]",0,89.03,3237,16,8.27,5.2185
ORD026145,REST1781,CUST08947,COUR2733,-37.8021162,144.9662039,2020-09-02,04:48:47,0,0,Car,"[('chicken burger', 2), ('veggie pizza', 1)]",0,33.03,1611,4,8.27,2.9936
ORD180824,REST1858,CUST11764,COUR3429,-37.8263157,145.0039054,2020-01-24,22:52:44,0,0,Motorbike,"[('roast beef', 2), ('crab toast', 2), ('fish', 3), ('mackerel fry', 3)]",0,141.56,1914,4,7.06,3.479
ORD275285,REST1781,CUST10041,COUR4848,-37.8107533,144.9975014,2020-04-12,20:38:14,0,1,Motorbike,"[('veggie pizza', 3), ('pizza', 1)]",0,51.12,3455,7,8.27,4.6363
ORD167442,REST1858,CUST05312,COUR4920,-37.8186975,144.9657741,2020-11-30,22:40:52,0,0,Car,"[('fish', 2), ('mackerel fry', 2)]",20,46.816,1920,5,7.06,3.2158
ORD179813,REST1801,CUST13142,COUR0225,-37.8120177,144.9784624,2020-11-14,05:44:10,0,1,Car,"[('panner tikka', 1), ('naan', 1)]",45,10.439,2710,7,9.72,4.3704
ORD020680,REST1858,CUST10953,COUR4694,-37.8085942,144.948182,2020-12-12,19:50:46,1,1,Motorbike,"[('fish', 2), ('crab toast', 2)]",0,45.16,4312,9,7.06,6.1884
ORD325852,REST0936,CUST07266,COUR4719,-37.8209525,144.9480914,2020-04-15,17:32:18,0,0,Motorbike,"[('cheesecake', 3), ('saffron pilaf', 3), ('banana chips', 3)]",0,166.29,2513,5,9.58,3.1727
ORD171616,REST1450,CUST05841,COUR0682,-37.8133613,144.9750289,2020-10-13,05:20:26,0,0,Bike,"[('kachori', 1), ('poha', 2), ('puri sabzi', 2), ('samosa', 3)]",0,102.67,1923,10,7.71,3.884
ORD233017,REST1801,CUST12041,COUR3962,-37.8071052,144.9599028,2020-01-22,03:49:27,0,0,Car,"[('tandoori chicken', 2), ('hyderabadi biryani', 2), ('chicken boneless biryani', 1)]",0,75.78,974,2,9.72,2.5664
ORD139936,REST0936,CUST07763,COUR1775,-37.8133795,144.9647797,2020-08-19,06:51:25,0,0,Bike,"[('tender coconut ice cream', 2), ('cheesecake', 1), ('begun pora', 3)]",0,125.85,3444,17,9.58,3.99
ORD232672,REST1801,CUST04927,COUR1858,-37.8142319,144.9728163,2020-12-22,09:05:56,0,0,Bike,"[('tandoori chicken', 2), ('naan', 2), ('panner tikka', 3)]",0,81.92,2548,13,9.72,3.6498
ORD036837,REST1858,CUST07672,COUR0957,-37.8110272,144.9900001,2020-05-26,05:56:02,0,0,Car,"[('roast beef', 3), ('beef fry', 2), ('kerala parotta', 2), ('fish', 2)]",45,80.685,1542,4,7.06,3.3058
ORD152885,REST1450,CUST12816,COUR3032,-37.8191593,144.964517,2020-04-25,09:37:34,0,1,Car,"[('jalebi', 1), ('samosa', 1), ('kachori', 2), ('rasgulla', 3)]",0,105.03,1078,3,7.71,4.5375
ORD298415,REST1781,CUST00725,COUR1457,-37.8143884,144.9587802,2020-11-03,13:19:07,1,0,Car,"[('mango salad', 1), ('burgers', 2), ('beef burger', 3), ('veggie pizza', 1)]",0,70.16,781,2,8.27,4.4502
ORD217111,REST1801,CUST06762,COUR2814,-37.8036065,144.9728599,2020-01-16,16:05:16,0,0,Motorbike,"[('chicken boneless biryani', 1), ('crispy chicken', 1)]",40,21.294,1860,4,9.72,2.7339
ORD105490,REST0936,CUST05490,COUR2942,-37.8025333,144.954166,2020-03-27,09:25:42,0,0,Motorbike,"[('banana chips', 1), ('paratha', 1), ('begun pora', 1), ('cheesecake', 3)]",0,91.13,2444,5,9.58,3.1406
ORD094105,REST1450,CUST12085,COUR1857,-37.8238027,144.9788569,2020-04-21,06:59:20,0,0,Bike,"[('samosa', 2), ('poha', 2), ('jalebi', 2), ('rasgulla', 3)]",40,76.95,2597,13,7.71,3.8915
ORD197483,REST0936,CUST01016,COUR0216,-37.8016298,144.9211476,2020-07-29,21:21:45,0,0,Motorbike,"[('saffron pilaf', 1), ('banana chips', 3)]",10,73.314,1913,4,9.58,3.2102
ORD327692,REST1858,CUST08009,COUR2824,-37.8194857,145.0082458,2020-05-26,12:23:44,1,0,Motorbike,"[('mackerel fry', 2), ('kerala parotta', 3), ('beef fry', 2), ('roast beef', 2)]",40,78.06,2453,5,7.06,5.0644
ORD034610,REST1801,CUST05337,COUR3381,-37.8161428,144.9661948,2020-08-04,14:14:30,0,0,Motorbike,"[('chicken boneless biryani', 2), ('naan', 1), ('tandoori chicken', 1)]",0,77.12,2226,4,9.72,2.9773
ORD016053,REST1858,CUST00138,COUR0877,-37.8050608,144.9722481,2020-01-12,08:18:27,0,1,Bike,"[('mackerel fry', 3), ('kerala parotta', 2)]",20,51.736,2554,13,7.06,5.3086
ORD108451,REST1858,CUST06598,COUR1093,-37.8258817,144.9828579,2020-07-28,03:13:50,0,0,Motorbike,"[('beef fry', 1), ('roast beef', 3), ('appam', 2)]",45,62.81,647,1,7.06,2.8986
ORD220972,REST1858,CUST01843,COUR2376,-37.8211643,145.0140761,2020-12-18,15:25:42,0,0,Motorbike,"[('fish', 1), ('crab toast', 1)]",0,22.58,3048,6,7.06,3.6449
ORD050519,REST0936,CUST03892,COUR1974,-37.8180144,144.9470579,2020-07-21,17:08:34,0,0,Bike,"[('cheesecake', 3), ('paratha', 1)]",0,47.27,2174,11,9.58,3.5763
ORD118886,REST1801,CUST05137,COUR1971,-37.8255176,144.9516079,2020-11-11,04:21:05,0,0,Motorbike,"[('crispy chicken', 2), ('hyderabadi biryani', 2), ('chicken boneless biryani', 2), ('naan', 3)]",0,124.72,3819,8,9.72,3.5545
ORD154577,REST1781,CUST10398,COUR0823,-37.813063,144.9516671,2020-09-22,03:37:34,0,0,Car,"[('chicken burger', 3), ('coffee', 3), ('pizza', 1)]",10,115.182,2672,6,8.27,3.509
ORD170057,REST1781,CUST12316,COUR3236,-37.8156592,144.9581359,2020-05-21,00:27:41,0,0,Motorbike,"[('chicken burger', 2), ('beef burger', 3)]",0,50.45,772,2,8.27,3.2512
ORD155305,REST1801,CUST00915,COUR0441,-37.8151625,144.9545623,2020-10-06,14:50:06,0,0,Car,"[('naan', 2), ('chicken boneless biryani', 2), ('tandoori chicken', 2)]",0,108.84,2327,6,9.72,3.1259
ORD105250,REST1450,CUST05295,COUR2651,-37.8176529,144.9694112,2020-11-20,21:53:24,0,0,Bike,"[('rasgulla', 2), ('jalebi', 3), ('samosa', 3), ('puri sabzi', 1)]",20,105.768,1681,8,7.71,3.4912
ORD144881,REST1450,CUST01797,COUR0094,-37.7990947,144.9632954,2020-07-30,11:08:34,0,0,Bike,"[('puri sabzi', 2), ('rasgulla', 2), ('samosa', 3)]",0,121.73,2889,14,7.71,4.5459
ORD181282,REST0936,CUST01775,COUR3489,-37.7996623,144.9622425,2020-12-28,20:06:35,0,0,Motorbike,"[('cheesecake', 3), ('paratha', 3), ('tender coconut ice cream', 1)]",10,77.571,3393,7,9.58,3.2963
ORD233436,REST0936,CUST11801,COUR1721,-37.8012547,144.9626936,2020-12-06,20:42:11,0,1,Bike,"[('saffron pilaf', 1), ('tender coconut ice cream', 3), ('banana chips', 1), ('cheesecake', 2)]",0,127.4,3425,17,9.58,5.5398
ORD104509,REST1781,CUST07550,COUR2212,-37.8140776,144.9446245,2020-11-16,06:59:20,0,0,Bike,"[('veggie pizza', 3), ('mango salad', 2), ('coffee', 3)]",40,85.344,2297,11,8.27,3.9546
ORD300501,REST1450,CUST08120,COUR1162,-37.8180792,144.9946677,2020-05-28,22:52:44,0,0,Bike,"[('samosa', 3), ('kachori', 3), ('rasgulla', 1), ('jalebi', 3)]",0,115.01,3776,19,7.71,4.8536
ORD300593,REST1781,CUST10005,COUR2387,-37.8042115,145.002375,2020-03-04,13:19:07,1,0,Motorbike,"[('peri peri chicken wings', 1), ('chicken burger', 3)]",20,43.144,4271,9,8.27,4.691
ORD008748,REST1781,CUST12490,COUR1354,-37.8174248,144.9526301,2020-05-05,11:16:29,0,0,Bike,"[('coffee', 1), ('beef burger', 3)]",0,49.5,1309,7,8.27,3.4158
ORD001050,REST1801,CUST06201,COUR4025,-37.8149802,144.9354243,2020-04-02,23:16:29,0,0,Bike,"[('naan', 2), ('chicken boneless biryani', 1), ('chicken guntur', 1)]",40,34.722,3435,17,9.72,4.425
ORD326938,REST0936,CUST07648,COUR4914,-37.8135741,144.9411848,2020-02-02,23:08:34,0,1,Bike,"[('tender coconut ice cream', 2), ('cheesecake', 1), ('paratha', 3)]",0,80.85,1605,8,9.58,4.3703
ORD199217,REST1858,CUST10787,COUR1387,-37.8089247,144.9616839,2020-02-28,12:03:57,1,0,Motorbike,"[('crab toast', 1), ('roast beef', 3)]",45,38.154,3106,6,7.06,5.2285
ORD154161,REST1801,CUST01539,COUR4962,-37.811841,145.0027823,2020-03-15,12:15:49,1,1,Car,"[('crispy chicken', 3), ('panner tikka', 2), ('naan', 3)]",45,49.033,4601,11,9.72,6.0197
ORD322542,REST1450,CUST09344,COUR4218,-37.8082849,144.976546,2020-04-16,04:21:05,0,0,Car,"[('rasgulla', 3), ('poha', 2), ('jalebi', 3)]",0,112.74,2442,6,7.71,3.3721
ORD000595,REST1858,CUST03388,COUR3075,-37.8082922,144.9365023,2020-02-13,23:16:29,0,0,Car,"[('beef fry', 1), ('roast beef', 2), ('fish', 2), ('mackerel fry', 1)]",0,99.39,5167,12,7.06,4.1014
ORD217175,REST0936,CUST08494,COUR1034,-37.8105488,144.9643375,2020-01-05,02:46:09,0,1,Motorbike,"[('begun pora', 3), ('mocha chingri', 3), ('paratha', 2)]",0,150.61,3378,7,9.58,4.4461
ORD081281,REST1450,CUST10804,COUR2625,-37.8079697,144.9567406,2020-07-14,19:15:09,1,0,Motorbike,"[('samosa', 3), ('rasgulla', 3)]",45,57.321,1516,3,7.71,4.927
ORD235076,REST1858,CUST12819,COUR0247,-37.8207891,144.9621034,2020-04-02,13:46:48,1,0,Motorbike,"[('roast beef', 3), ('beef fry', 2)]",10,76.644,2257,5,7.06,4.9856
ORD229885,REST1858,CUST10860,COUR4014,-37.8001924,144.9686569,2020-12-25,19:42:51,1,0,Motorbike,"[('appam', 3), ('roast beef', 3), ('mackerel fry', 1), ('kerala parotta', 3)]",20,141.768,3213,6,7.06,4.5521
ORD127926,REST1450,CUST07598,COUR3467,-37.8122826,144.9384914,2020-12-21,22:09:13,0,0,Motorbike,"[('jalebi', 1), ('samosa', 3), ('rasgulla', 1), ('kachori', 1)]",45,43.202,2539,5,7.71,3.6997
ORD088134,REST1450,CUST08957,COUR0975,-37.8028167,144.9665068,2020-06-16,10:21:05,0,0,Motorbike,"[('jalebi', 3), ('kachori', 3), ('poha', 1), ('puri sabzi', 2)]",0,102.49,2629,5,7.71,3.1552
ORD157616,REST1858,CUST03041,COUR3937,-37.7995026,144.9743546,2020-07-21,19:54:43,1,0,Bike,"[('roast beef', 3), ('appam', 1), ('fish', 1), ('kerala parotta', 1)]",0,114.37,3066,15,7.06,6.1731
ORD181709,REST0936,CUST11503,COUR1573,-37.8045831,144.9353925,2020-03-02,05:56:02,0,0,Car,"[('begun pora', 3), ('banana chips', 3), ('cheesecake', 2)]",0,156.72,713,2,9.58,3.0461
ORD328442,REST1801,CUST00404,COUR1029,-37.8227589,144.9854296,2020-05-07,19:23:04,1,0,Bike,"[('tandoori chicken', 1), ('crispy chicken', 2), ('naan', 1)]",0,57.3,3867,19,9.72,6.0988
ORD222135,REST1858,CUST10403,COUR2445,-37.8090115,144.9720216,2020-06-18,03:29:40,0,0,Bike,"[('crab toast', 1), ('mackerel fry', 2), ('beef fry', 3), ('fish', 2)]",0,96.33,2004,10,7.06,3.8321
ORD331924,REST0936,CUST04633,COUR1763,-37.8031529,144.9367305,2020-11-13,23:28:21,0,0,Car,"[('mocha chingri', 2), ('tender coconut ice cream', 2), ('saffron pilaf', 2), ('paratha', 3)]",0,153.94,1719,4,9.58,2.9966
ORD260694,REST1781,CUST12605,COUR2592,-37.8044009,144.9488091,2020-12-07,20:38:14,0,0,Motorbike,"[('chicken burger', 2), ('coffee', 1), ('veggie pizza', 3), ('peri peri chicken wings', 1)]",0,92.47,2353,5,8.27,3.7121
ORD295488,REST0936,CUST00354,COUR0861,-37.82089,144.9844083,2020-11-27,05:52:05,0,0,Motorbike,"[('tender coconut ice cream', 1), ('saffron pilaf', 3), ('begun pora', 1), ('cheesecake', 1)]",10,114.849,5711,11,9.58,3.8461
ORD289315,REST1781,CUST06959,COUR1895,-37.8062072,144.9538029,2020-04-16,17:20:26,0,0,Motorbike,"[('burgers', 1), ('mango salad', 1), ('beef burger', 3)]",10,49.761,1813,4,8.27,2.9683
ORD038585,REST0936,CUST12918,COUR3906,-37.8248246,144.9284918,2020-10-27,01:50:46,0,0,Car,"[('banana chips', 1), ('mocha chingri', 3), ('saffron pilaf', 1), ('paratha', 1)]",10,99.207,7239,17,9.58,4.3047
ORD005925,REST1801,CUST05291,COUR2815,-37.8175268,144.9685529,2020-07-14,00:11:52,0,0,Motorbike,"[('tandoori chicken', 2), ('panner tikka', 3)]",20,45.024,2827,6,9.72,3.1213
ORD010519,REST1858,CUST01028,COUR0551,-37.8083191,144.9363986,2020-10-23,08:26:22,0,0,Car,"[('mackerel fry', 3), ('appam', 2), ('crab toast', 3)]",0,93.7,5157,12,7.06,4.4932
ORD100555,REST1858,CUST04947,COUR0218,-37.8121119,144.9739817,2020-06-06,06:35:36,0,1,Motorbike,"[('kerala parotta', 1), ('crab toast', 1)]",45,10.72,1626,3,7.06,4.3322
ORD112012,REST1781,CUST12400,COUR2369,-37.8097389,144.9463419,2020-10-15,22:56:42,0,0,Car,"[('pizza', 2), ('coffee', 3), ('beef burger', 3)]",0,142.38,2318,6,8.27,3.451
ORD268308,REST1781,CUST10079,COUR4607,-37.8286106,144.9881799,2020-06-07,07:54:43,0,1,Motorbike,"[('beef burger', 3), ('chicken burger', 3), ('mango salad', 1)]",40,51.222,3342,7,8.27,4.633
ORD130029,REST1781,CUST03640,COUR2087,-37.8039087,144.9668829,2020-07-27,00:00:00,0,0,Car,"[('beef burger', 3), ('chicken burger', 3)]",10,56.133,1454,3,8.27,2.6409
ORD344763,REST1781,CUST12379,COUR0648,-37.8061754,144.9445034,2020-06-19,07:58:40,0,0,Car,"[('coffee', 2), ('pizza', 3), ('burgers', 3)]",40,80.082,2657,6,8.27,3.1995
ORD184746,REST0936,CUST01240,COUR4751,-37.8000506,144.980491,2020-02-21,04:17:08,0,0,Car,"[('tender coconut ice cream', 1), ('paratha', 2)]",0,38.92,5101,12,9.58,3.999
ORD229743,REST1801,CUST11688,COUR4646,-37.8179653,144.9323057,2020-10-11,01:30:59,0,1,Bike,"[('crispy chicken', 1), ('chicken boneless biryani', 3), ('hyderabadi biryani', 1)]",0,88.53,3685,18,9.72,5.2038
ORD279508,REST1858,CUST04864,COUR0281,-37.8221438,144.978328,2020-07-10,15:57:21,0,0,Bike,"[('crab toast', 1), ('fish', 2)]",20,31.608,817,4,7.06,3.6197
ORD017837,REST1781,CUST04076,COUR2493,-37.8207745,144.9846564,2020-01-22,00:19:46,0,0,Bike,"[('chicken burger', 2), ('coffee', 3), ('pizza', 3), ('beef burger', 1)]",0,172.03,2534,13,8.27,3.8533
ORD191315,REST1781,CUST10723,COUR1125,-37.8138488,144.9836191,2020-07-05,01:15:09,0,1,Motorbike,"[('pizza', 2), ('beef burger', 2), ('chicken burger', 1)]",10,69.084,2093,4,8.27,4.1152
ORD105890,REST1781,CUST10542,COUR0267,-37.8041043,144.9478734,2020-10-15,10:48:47,0,0,Car,"[('veggie pizza', 1), ('burgers', 1), ('coffee', 1), ('mango salad', 1)]",0,60.76,2399,6,8.27,3.51
ORD007978,REST0936,CUST08806,COUR3546,-37.80588,144.95599,2020-11-16,02:06:35,0,0,Car,"[('banana chips', 2), ('mocha chingri', 3)]",45,53.026,2755,7,9.58,3.2518
ORD053185,REST0936,CUST02961,COUR1673,-37.8004687,144.9807587,2020-01-13,16:44:50,0,0,Bike,"[('tender coconut ice cream', 2), ('saffron pilaf', 1), ('cheesecake', 1)]",20,60.584,5107,26,9.58,5.0675
ORD335170,REST1450,CUST01231,COUR1381,-37.801015,144.9870425,2020-03-27,00:27:41,0,0,Car,"[('kachori', 2), ('samosa', 1)]",10,26.199,4092,10,7.71,3.68
ORD150117,REST1781,CUST01111,COUR2998,-37.8079403,145.0087965,2020-12-12,20:06:35,0,1,Bike,"[('chicken burger', 2), ('burgers', 1), ('beef burger', 3)]",45,30.872,4671,23,8.27,6.0207
ORD055771,REST0936,CUST03950,COUR2353,-37.8114779,144.9381658,2020-03-22,09:21:45,0,1,Motorbike,"[('saffron pilaf', 2), ('banana chips', 2), ('paratha', 2), ('begun pora', 2)]",10,138.564,1187,2,9.58,4.2571
ORD070434,REST1781,CUST06761,COUR3875,-37.8033152,144.9715926,2020-06-08,19:03:17,1,0,Motorbike,"[('veggie pizza', 2), ('burgers', 2), ('pizza', 3), ('peri peri chicken wings', 1)]",0,118.56,2094,4,8.27,4.9113
ORD342760,REST1801,CUST09445,COUR1507,-37.8217657,144.9538903,2020-08-26,15:21:45,0,0,Bike,"[('crispy chicken', 1), ('panner tikka', 2)]",0,25.11,3128,16,9.72,4.3932
ORD168351,REST1450,CUST05398,COUR1576,-37.8149416,144.9661241,2020-04-25,01:30:59,0,1,Motorbike,"[('rasgulla', 1), ('puri sabzi', 2), ('kachori', 2), ('poha', 1)]",0,86.07,1152,2,7.71,4.0141
ORD347127,REST1450,CUST13323,COUR2311,-37.8219252,144.9375827,2020-03-09,15:09:53,0,0,Motorbike,"[('jalebi', 3), ('samosa', 3), ('kachori', 3), ('poha', 3)]",20,94.464,2068,4,7.71,3.5452
ORD065840,REST1781,CUST08783,COUR0475,-37.8026378,144.9454626,2020-09-05,22:32:58,0,1,Bike,"[('mango salad', 1), ('veggie pizza', 3), ('pizza', 2)]",45,53.719,2685,13,8.27,5.1608
ORD003549,REST1801,CUST13514,COUR1018,-37.8240231,144.9330111,2020-11-23,21:29:40,0,0,Bike,"[('tandoori chicken', 1), ('crispy chicken', 3)]",20,45.816,5128,26,9.72,5.1065
ORD021203,REST1450,CUST05118,COUR0263,-37.8218392,144.951834,2020-09-18,10:05:16,0,0,Bike,"[('samosa', 2), ('poha', 2), ('rasgulla', 1)]",20,51.368,532,3,7.71,3.3751
ORD193480,REST0936,CUST07023,COUR1790,-37.8038433,144.9563621,2020-03-19,04:44:50,0,0,Car,"[('cheesecake', 1), ('mocha chingri', 2), ('banana chips', 1), ('paratha', 2)]",40,53.718,2543,6,9.58,3.3165
ORD179497,REST0936,CUST12646,COUR4441,-37.8041213,144.9492269,2020-02-29,08:22:25,0,1,Car,"[('cheesecake', 1), ('tender coconut ice cream', 2), ('banana chips', 1)]",0,71.47,1837,4,9.58,3.8401
ORD278236,REST0936,CUST11975,COUR2505,-37.8170275,144.9532475,2020-05-18,05:48:07,0,0,Car,"[('tender coconut ice cream', 1), ('mocha chingri', 3)]",40,46.566,2394,6,9.58,3.2316
ORD021311,REST1781,CUST05033,COUR3847,-37.8094704,144.9727182,2020-04-02,16:29:00,0,0,Car,"[('burgers', 3), ('veggie pizza', 1), ('chicken burger', 3), ('mango salad', 1)]",40,50.994,1126,3,8.27,3.1362
ORD094314,REST0936,CUST03898,COUR3717,-37.8177994,144.946442,2020-07-22,12:35:36,1,0,Motorbike,"[('cheesecake', 3), ('mocha chingri', 1), ('begun pora', 1)]",0,81.54,2102,4,9.58,4.416
ORD249578,REST1858,CUST06447,COUR1195,-37.8246789,144.9705324,2020-11-08,03:29:40,0,1,Car,"[('crab toast', 2), ('fish', 2)]",0,45.16,1714,4,7.06,4.0374
ORD150906,REST1858,CUST03887,COUR3216,-37.8022962,145.012452,2020-04-16,04:09:13,0,0,Car,"[('kerala parotta', 3), ('beef fry', 2), ('mackerel fry', 1)]",0,75.29,4126,10,7.06,4.2135
ORD170924,REST1801,CUST12340,COUR2210,-37.8113423,144.9656704,2020-10-06,01:27:01,0,0,Motorbike,"[('hyderabadi biryani', 3), ('chicken guntur', 2), ('naan', 3), ('panner tikka', 1)]",40,51.96,1694,3,9.72,2.7331
ORD320241,REST0936,CUST13146,COUR4996,-37.8081541,144.9761699,2020-01-03,09:45:29,0,0,Bike,"[('banana chips', 2), ('saffron pilaf', 2), ('cheesecake', 2)]",0,110.86,4140,21,9.58,4.7898
ORD141474,REST1858,CUST06841,COUR4549,-37.8063372,144.9595445,2020-12-08,20:42:11,0,0,Car,"[('crab toast', 2), ('kerala parotta', 2), ('appam', 1), ('beef fry', 2)]",0,80.3,3155,8,7.06,3.8676
ORD277103,REST1858,CUST08885,COUR3810,-37.8142199,145.0061672,2020-07-16,09:29:40,0,0,Motorbike,"[('kerala parotta', 1), ('fish', 1), ('crab toast', 3), ('appam', 1)]",0,67.6,2705,5,7.06,3.5378
ORD023499,REST1781,CUST08913,COUR0752,-37.8055127,144.9661838,2020-01-31,08:50:06,0,0,Motorbike,"[('coffee', 3), ('chicken burger', 1)]",20,64.472,1227,2,8.27,2.7414
ORD023234,REST0936,CUST01946,COUR2968,-37.8182858,144.9787691,2020-11-11,07:54:43,0,0,Bike,"[('tender coconut ice cream', 1), ('paratha', 3), ('begun pora', 2)]",0,97.6,5209,26,9.58,4.8382
ORD284950,REST1858,CUST11211,COUR2842,-37.8025897,144.9458728,2020-06-03,07:15:09,0,0,Motorbike,"[('mackerel fry', 3), ('crab toast', 1), ('appam', 2), ('roast beef', 2)]",20,99.904,4559,9,7.06,3.6592
ORD133443,REST1450,CUST06238,COUR3533,-37.8157144,144.9381885,2020-10-23,10:44:50,0,0,Car,"[('puri sabzi', 2), ('rasgulla', 3), ('jalebi', 2), ('kachori', 2)]",20,113.416,2029,5,7.71,3.0577
ORD245280,REST1781,CUST07749,COUR4097,-37.8189478,144.9520462,2020-05-26,06:19:46,0,0,Motorbike,"[('mango salad', 2), ('pizza', 3), ('peri peri chicken wings', 3)]",0,171.16,1609,3,8.27,2.9573
ORD212527,REST0936,CUST03040,COUR3289,-37.8014095,144.9643554,2020-11-20,06:27:41,0,0,Motorbike,"[('mocha chingri', 1), ('tender coconut ice cream', 2)]",10,52.983,3560,7,9.58,3.0399
ORD331655,REST1450,CUST08909,COUR0133,-37.8034761,144.9663902,2020-04-19,17:16:29,0,1,Car,"[('kachori', 3), ('rasgulla', 3), ('samosa', 1)]",20,82.496,2554,6,7.71,4.9736
ORD161957,REST1801,CUST10075,COUR3729,-37.8214592,144.9738626,2020-09-11,22:36:55,0,0,Motorbike,"[('tandoori chicken', 3), ('chicken guntur', 1), ('crispy chicken', 3)]",20,83.68,3114,6,9.72,3.4602
ORD101247,REST1450,CUST01738,COUR1494,-37.8231582,144.9425734,2020-08-20,17:08:34,0,0,Bike,"[('poha', 1), ('kachori', 1)]",20,13.2,1609,8,7.71,3.769
ORD112296,REST0936,CUST06683,COUR2944,-37.807883,144.9713752,2020-01-10,17:04:36,0,0,Motorbike,"[('tender coconut ice cream', 3), ('begun pora', 2)]",0,108.52,3715,7,9.58,3.4255
ORD274287,REST1450,CUST05118,COUR4204,-37.8218392,144.951834,2020-03-08,14:26:22,0,1,Motorbike,"[('jalebi', 3), ('puri sabzi', 3), ('kachori', 3), ('rasgulla', 1)]",0,135.83,532,1,7.71,3.6918
ORD053474,REST1781,CUST01889,COUR1413,-37.8226111,144.9778791,2020-07-27,16:32:58,0,0,Motorbike,"[('veggie pizza', 2), ('burgers', 3), ('coffee', 2), ('mango salad', 3)]",0,150.2,2005,4,8.27,3.1944
ORD097017,REST1450,CUST11072,COUR0241,-37.8061201,144.9486771,2020-12-24,03:37:34,0,0,Car,"[('kachori', 1), ('rasgulla', 3)]",45,40.706,1785,4,7.71,3.0949
ORD025638,REST1858,CUST05985,COUR4060,-37.8196174,144.9687616,2020-02-16,21:13:50,0,1,Bike,"[('mackerel fry', 1), ('kerala parotta', 3), ('appam', 2), ('roast beef', 1)]",0,114.85,1713,9,7.06,4.7481
ORD144323,REST1781,CUST04991,COUR0813,-37.8106671,144.9715857,2020-06-03,04:48:47,0,0,Bike,"[('peri peri chicken wings', 1), ('veggie pizza', 2), ('chicken burger', 2)]",0,60.39,899,4,8.27,3.1348
ORD320311,REST1450,CUST08225,COUR3704,-37.8262599,144.9288674,2020-02-22,20:58:01,0,1,Motorbike,"[('poha', 3), ('rasgulla', 2), ('samosa', 3)]",0,107.29,3060,6,7.71,4.7454
ORD013267,REST1801,CUST11836,COUR4270,-37.8084027,144.9758271,2020-12-07,15:17:48,0,0,Bike,"[('naan', 2), ('hyderabadi biryani', 3), ('chicken boneless biryani', 3)]",0,116.66,2094,10,9.72,3.46
ORD235865,REST0936,CUST00519,COUR2611,-37.8133726,144.9564472,2020-01-17,02:02:38,0,0,Motorbike,"[('begun pora', 1), ('paratha', 1), ('mocha chingri', 1)]",0,53.39,2738,5,9.58,3.3501
ORD007925,REST0936,CUST05830,COUR2502,-37.8135539,144.9806089,2020-04-26,04:32:58,0,1,Motorbike,"[('tender coconut ice cream', 1), ('banana chips', 2), ('paratha', 3), ('mocha chingri', 3)]",0,144.89,4955,10,9.58,4.3971
ORD062045,REST1450,CUST10103,COUR4161,-37.8038685,144.9535998,2020-03-31,00:47:28,0,0,Bike,"[('rasgulla', 2), ('samosa', 3), ('kachori', 1), ('puri sabzi', 1)]",0,110.16,1976,10,7.71,3.8196
ORD249632,REST1781,CUST09931,COUR4336,-37.8177425,144.951058,2020-11-02,04:52:44,0,0,Motorbike,"[('pizza', 3), ('veggie pizza', 1)]",20,63.872,1447,3,8.27,3.0559
ORD255487,REST0936,CUST01928,COUR2105,-37.81955,144.9723494,2020-07-23,00:35:36,0,0,Bike,"[('paratha', 3), ('begun pora', 3)]",45,56.298,4602,23,9.58,5.1325
ORD329736,REST1858,CUST10964,COUR0811,-37.8067439,144.9490498,2020-06-28,23:28:21,0,1,Car,"[('appam', 2), ('crab toast', 3), ('roast beef', 2), ('fish', 3)]",0,149.98,4178,10,7.06,4.8595
ORD265374,REST1801,CUST09509,COUR4982,-37.8210501,144.9431888,2020-12-11,23:36:15,0,0,Bike,"[('chicken boneless biryani', 1), ('naan', 3), ('tandoori chicken', 3), ('hyderabadi biryani', 2)]",45,73.227,3578,18,9.72,4.3675
ORD341490,REST0936,CUST03235,COUR2239,-37.7990932,144.9787484,2020-05-21,10:56:42,0,0,Bike,"[('saffron pilaf', 3), ('banana chips', 2), ('mocha chingri', 3), ('paratha', 2)]",0,186.21,5019,25,9.58,5.3959
ORD187482,REST1801,CUST09632,COUR3120,-37.8081914,144.9767947,2020-06-27,00:23:44,0,1,Bike,"[('hyderabadi biryani', 2), ('tandoori chicken', 1)]",45,18.799,2151,11,9.72,4.5029
ORD091734,REST1801,CUST05473,COUR1395,-37.8179323,144.9619829,2020-08-21,23:56:02,0,0,Car,"[('crispy chicken', 1), ('chicken boneless biryani', 3), ('tandoori chicken', 2)]",0,118.69,2367,6,9.72,3.4317
ORD330370,REST1858,CUST01756,COUR0965,-37.812221,144.9712955,2020-01-21,01:34:56,0,0,Bike,"[('appam', 1), ('mackerel fry', 3)]",45,31.279,1781,9,7.06,3.6634
ORD303990,REST0936,CUST08926,COUR0054,-37.8098265,144.9668282,2020-02-09,11:16:29,0,1,Motorbike,"[('banana chips', 3), ('saffron pilaf', 3), ('mocha chingri', 1), ('cheesecake', 2)]",0,172.99,3527,7,9.58,4.2884
ORD316658,REST1858,CUST08738,COUR3022,-37.8033534,144.9518514,2020-03-27,18:23:44,1,0,Motorbike,"[('kerala parotta', 3), ('mackerel fry', 2), ('crab toast', 2), ('beef fry', 1)]",0,88.2,4012,8,7.06,5.3638
ORD245993,REST0936,CUST12118,COUR0437,-37.7996302,144.961576,2020-12-06,20:30:19,0,1,Motorbike,"[('mocha chingri', 2), ('banana chips', 1)]",0,57.84,3312,7,9.58,4.5535
ORD076841,REST1801,CUST05053,COUR4253,-37.8097201,144.9723055,2020-02-20,16:29:00,0,0,Car,"[('chicken boneless biryani', 1), ('panner tikka', 2)]",45,19.261,1951,5,9.72,3.0858
ORD052281,REST1858,CUST04122,COUR4246,-37.8202215,144.9851673,2020-07-29,08:54:03,0,0,Bike,"[('kerala parotta', 3), ('fish', 1), ('beef fry', 1)]",20,55.336,215,1,7.06,2.8194
ORD106590,REST1801,CUST11917,COUR2778,-37.8056943,144.9772061,2020-10-22,17:52:05,0,0,Car,"[('hyderabadi biryani', 2), ('chicken guntur', 1)]",20,19.848,1957,5,9.72,3.0549
ORD125211,REST1450,CUST11391,COUR3996,-37.8092574,144.9721461,2020-09-02,21:29:40,0,0,Bike,"[('poha', 3), ('samosa', 3), ('puri sabzi', 1)]",0,83.12,2224,11,7.71,3.6899
ORD284660,REST1781,CUST10243,COUR0579,-37.8049059,144.9937676,2020-09-13,14:22:25,0,1,Motorbike,"[('chicken burger', 3), ('mango salad', 1), ('beef burger', 2), ('pizza', 3)]",45,80.932,3601,7,8.27,4.6782
ORD187952,REST0936,CUST09119,COUR1521,-37.8169424,144.9532084,2020-05-15,13:15:09,1,0,Bike,"[('paratha', 2), ('mocha chingri', 1), ('saffron pilaf', 3)]",10,98.163,2387,12,9.58,5.513
ORD163801,REST0936,CUST08713,COUR0968,-37.8167058,144.9697926,2020-10-16,03:09:53,0,0,Bike,"[('mocha chingri', 3), ('paratha', 1)]",10,60.633,4193,21,9.58,4.6219
ORD033076,REST1450,CUST12478,COUR0733,-37.8190718,144.952464,2020-02-18,09:53:24,0,0,Motorbike,"[('samosa', 2), ('poha', 2), ('rasgulla', 3), ('kachori', 3)]",0,132.59,258,1,7.71,3.0056
ORD035797,REST1858,CUST02982,COUR4990,-37.7995078,144.959721,2020-03-14,06:35:36,0,1,Motorbike,"[('mackerel fry', 2), ('appam', 2), ('kerala parotta', 1)]",45,43.043,3884,8,7.06,4.8132
ORD029146,REST0936,CUST13190,COUR2872,-37.8193607,144.9765948,2020-08-18,08:10:32,0,0,Bike,"[('banana chips', 1), ('mocha chingri', 1), ('tender coconut ice cream', 3), ('saffron pilaf', 2)]",10,130.581,4959,25,9.58,5.177
ORD348835,REST1858,CUST02073,COUR0852,-37.800866,145.0082393,2020-01-28,01:34:56,0,0,Bike,"[('appam', 1), ('mackerel fry', 3)]",0,56.87,4242,21,7.06,5.1758
ORD072883,REST1858,CUST03184,COUR1235,-37.8088818,144.9283336,2020-01-10,01:42:51,0,0,Car,"[('appam', 3), ('kerala parotta', 2), ('mackerel fry', 1), ('fish', 1)]",45,64.119,6330,15,7.06,4.4317
ORD012698,REST1801,CUST06238,COUR1319,-37.8157144,144.9381885,2020-11-13,20:34:17,0,0,Car,"[('naan', 1), ('panner tikka', 3)]",0,31.3,3175,8,9.72,3.4494
ORD087236,REST1801,CUST01921,COUR1383,-37.8244114,144.9581081,2020-01-29,16:01:19,0,0,Car,"[('tandoori chicken', 1), ('hyderabadi biryani', 1), ('panner tikka', 3), ('crispy chicken', 3)]",0,83.39,3647,9,9.72,3.2845
ORD116330,REST1450,CUST07079,COUR2539,-37.8035966,144.9564425,2020-01-14,04:32:58,0,0,Motorbike,"[('puri sabzi', 1), ('poha', 1), ('samosa', 2)]",10,48.285,1945,4,7.71,3.2302
ORD256903,REST1801,CUST10964,COUR4723,-37.8067439,144.9490498,2020-11-27,04:25:03,0,0,Car,"[('tandoori chicken', 1), ('chicken guntur', 3), ('panner tikka', 1), ('naan', 2)]",0,79.29,1656,4,9.72,3.0984
ORD135377,REST1781,CUST08164,COUR4371,-37.8144517,145.0076823,2020-04-12,07:03:17,0,1,Motorbike,"[('coffee', 1), ('pizza', 3)]",0,93.54,4384,9,8.27,4.2172
ORD121888,REST1781,CUST06297,COUR3059,-37.8071621,144.9559662,2020-01-10,18:19:46,1,0,Car,"[('mango salad', 2), ('burgers', 2)]",45,31.548,1517,4,8.27,3.9526
ORD185914,REST1858,CUST01194,COUR4776,-37.8051086,144.9935066,2020-05-13,12:27:41,1,0,Car,"[('beef fry', 3), ('roast beef', 2), ('kerala parotta', 1), ('crab toast', 1)]",0,94.13,2372,6,7.06,5.0333
ORD005265,REST1450,CUST08920,COUR3432,-37.8108636,144.9673056,2020-11-08,12:11:52,1,1,Bike,"[('kachori', 3), ('puri sabzi', 2), ('poha', 3)]",40,53.376,1738,9,7.71,6.4959
ORD221195,REST1801,CUST05959,COUR2435,-37.820425,144.9657484,2020-07-12,07:11:12,0,1,Motorbike,"[('chicken guntur', 2), ('crispy chicken', 2), ('panner tikka', 1)]",0,50.8,2723,5,9.72,3.9558
ORD122903,REST0936,CUST11449,COUR4770,-37.8171722,144.9860587,2020-01-25,02:14:30,0,1,Car,"[('cheesecake', 3), ('paratha', 3), ('banana chips', 1), ('saffron pilaf', 3)]",45,86.004,5653,14,9.58,4.7991
ORD311259,REST1801,CUST12732,COUR2718,-37.8152116,144.9275535,2020-11-28,09:09:53,0,1,Motorbike,"[('chicken guntur', 3), ('naan', 1), ('chicken boneless biryani', 3), ('tandoori chicken', 1)]",0,128.41,5031,10,9.72,4.0535
ORD275776,REST1450,CUST03464,COUR0104,-37.8197452,144.9943353,2020-12-01,11:56:02,0,0,Bike,"[('samosa', 3), ('poha', 2), ('kachori', 1)]",0,63.21,3876,19,7.71,4.586
ORD079058,REST1450,CUST12837,COUR4619,-37.8001131,144.9353096,2020-02-27,21:49:27,0,0,Car,"[('jalebi', 2), ('kachori', 1), ('rasgulla', 1), ('poha', 2)]",10,60.237,5583,13,7.71,4.1231
ORD049238,REST0936,CUST09861,COUR0372,-37.8181184,144.9649318,2020-01-17,01:50:46,0,0,Car,"[('cheesecake', 1), ('banana chips', 3), ('paratha', 3)]",0,99.15,3731,9,9.58,3.8571
ORD304055,REST1801,CUST10798,COUR3174,-37.8136656,144.955769,2020-07-17,21:01:58,0,0,Motorbike,"[('hyderabadi biryani', 2), ('panner tikka', 1)]",45,11.792,2028,4,9.72,3.4343
ORD215378,REST1801,CUST01697,COUR4406,-37.8231668,145.0044933,2020-07-21,14:26:22,0,0,Car,"[('panner tikka', 2), ('crispy chicken', 2)]",20,30.32,5603,13,9.72,3.7696
ORD146394,REST1450,CUST04239,COUR4464,-37.8178183,144.9887553,2020-10-29,20:46:09,0,0,Bike,"[('samosa', 2), ('kachori', 1), ('poha', 3), ('jalebi', 1)]",0,68.83,3299,16,7.71,4.4895
ORD019758,REST1858,CUST02400,COUR0159,-37.8065954,144.9860905,2020-05-14,01:54:43,0,0,Bike,"[('appam', 2), ('fish', 1)]",40,34.014,1843,9,7.06,4.0552
ORD215360,REST1450,CUST01938,COUR3084,-37.8118185,144.9751816,2020-05-15,14:26:22,0,0,Car,"[('jalebi', 1), ('rasgulla', 1), ('puri sabzi', 2)]",40,42.888,2021,5,7.71,3.2214
ORD229073,REST1781,CUST06366,COUR1757,-37.814917,144.9452473,2020-01-09,21:25:42,0,0,Bike,"[('chicken burger', 1), ('veggie pizza', 3)]",10,35.541,2172,11,8.27,3.7898
ORD126328,REST1801,CUST08209,COUR2438,-37.8166992,145.0072971,2020-02-19,21:13:50,0,0,Bike,"[('hyderabadi biryani', 1), ('crispy chicken', 3), ('panner tikka', 2), ('tandoori chicken', 1)]",0,77.23,5364,27,9.72,5.1885
ORD124453,REST1858,CUST01664,COUR2248,-37.8181372,145.0107552,2020-08-04,02:22:25,0,0,Motorbike,"[('appam', 2), ('kerala parotta', 2), ('beef fry', 1), ('mackerel fry', 3)]",0,115.15,2816,6,7.06,3.7919
ORD010033,REST1781,CUST00276,COUR2724,-37.8201432,144.9737884,2020-08-22,09:49:27,0,1,Motorbike,"[('pizza', 3), ('veggie pizza', 2)]",0,89.03,1989,4,8.27,4.163
ORD016689,REST1801,CUST12952,COUR2062,-37.8115349,144.9520968,2020-07-26,08:06:35,0,1,Motorbike,"[('panner tikka', 3), ('crispy chicken', 1)]",0,31.27,1926,4,9.72,3.9794
ORD224600,REST1858,CUST12912,COUR2060,-37.825471,144.9290812,2020-03-02,19:03:17,1,0,Motorbike,"[('mackerel fry', 1), ('kerala parotta', 3)]",0,53.85,10792,22,7.06,6.4038
ORD339245,REST1858,CUST10978,COUR1014,-37.8078691,144.9615966,2020-06-07,01:42:51,0,1,Motorbike,"[('mackerel fry', 1), ('roast beef', 1)]",10,30.213,3002,6,7.06,4.9334
ORD347793,REST1781,CUST10227,COUR2631,-37.8112054,144.9619207,2020-11-27,11:28:21,0,0,Bike,"[('coffee', 1), ('chicken burger', 1)]",20,27.848,711,4,8.27,3.1061
ORD252637,REST1801,CUST00154,COUR1265,-37.811942,145.0039821,2020-12-19,05:44:10,0,1,Motorbike,"[('hyderabadi biryani', 2), ('naan', 2)]",0,40.92,4705,9,9.72,4.5258
ORD328730,REST1450,CUST04807,COUR2661,-37.8043053,144.9290103,2020-09-02,16:05:16,0,0,Motorbike,"[('jalebi', 2), ('rasgulla', 1)]",0,42.09,3015,6,7.71,3.5066
ORD032488,REST1450,CUST12530,COUR4460,-37.8189659,144.9532,2020-11-22,07:42:51,0,1,Car,"[('kachori', 2), ('jalebi', 2), ('puri sabzi', 1)]",10,50.571,191,0,7.71,3.8066
ORD006483,REST1858,CUST12374,COUR0818,-37.8064527,144.9441638,2020-08-03,03:57:21,0,0,Bike,"[('mackerel fry', 2), ('beef fry', 3)]",0,56.82,4659,23,7.06,5.3397
ORD027646,REST1781,CUST03984,COUR2249,-37.8243506,144.9438143,2020-12-07,12:07:54,1,0,Motorbike,"[('pizza', 3), ('chicken burger', 3)]",20,85.128,2776,6,8.27,4.8758
ORD215044,REST0936,CUST00016,COUR3179,-37.8173782,144.95609,2020-05-11,19:11:12,1,0,Bike,"[('saffron pilaf', 2), ('tender coconut ice cream', 2), ('paratha', 2), ('cheesecake', 1)]",0,118.41,2729,14,9.58,5.2383
ORD197099,REST1801,CUST06422,COUR1459,-37.8036107,145.0057693,2020-02-27,17:16:29,0,0,Motorbike,"[('hyderabadi biryani', 2), ('crispy chicken', 3), ('naan', 1), ('chicken boneless biryani', 1)]",20,71.336,4376,9,9.72,3.3847
ORD161682,REST1781,CUST07041,COUR0147,-37.8029941,144.9579155,2020-09-30,22:32:58,0,0,Car,"[('beef burger', 1), ('burgers', 3), ('mango salad', 1), ('peri peri chicken wings', 1)]",40,40.248,1642,4,8.27,3.3523
ORD285165,REST0936,CUST13067,COUR3735,-37.8125792,144.9690115,2020-12-04,16:25:03,0,0,Bike,"[('begun pora', 2), ('saffron pilaf', 2), ('mocha chingri', 3), ('tender coconut ice cream', 1)]",10,156.465,3873,19,9.58,4.5506
ORD062624,REST1858,CUST06481,COUR4232,-37.8205326,145.0145066,2020-12-31,17:12:31,0,0,Motorbike,"[('mackerel fry', 1), ('roast beef', 1), ('appam', 2)]",0,73.33,3038,6,7.06,3.451
ORD099612,REST0936,CUST11411,COUR2454,-37.803445,144.991412,2020-08-19,05:36:15,0,0,Bike,"[('begun pora', 3), ('cheesecake', 3)]",0,111.39,6452,32,9.58,5.654
ORD084941,REST1781,CUST01650,COUR0396,-37.8093802,145.0025535,2020-10-31,08:38:14,0,1,Motorbike,"[('peri peri chicken wings', 3), ('chicken burger', 1)]",45,36.537,3941,8,8.27,4.428
ORD200213,REST1781,CUST04729,COUR1577,-37.8101861,144.9305798,2020-01-03,08:30:19,0,0,Motorbike,"[('mango salad', 1), ('beef burger', 1), ('burgers', 1)]",20,30.04,4385,9,8.27,3.3922
ORD258391,REST1801,CUST07245,COUR1940,-37.8224894,144.9478127,2020-06-20,09:17:48,0,1,Motorbike,"[('hyderabadi biryani', 1), ('chicken guntur', 1), ('naan', 2)]",20,34.248,3525,7,9.72,4.2446
ORD100728,REST1801,CUST02790,COUR0551,-37.7996885,144.9676512,2020-04-11,01:34:56,0,1,Car,"[('panner tikka', 1), ('tandoori chicken', 1), ('naan', 3), ('hyderabadi biryani', 1)]",0,71.16,831,2,9.72,3.4844
ORD113730,REST0936,CUST06799,COUR1154,-37.8038253,144.9562081,2020-03-20,16:09:13,0,0,Bike,"[('tender coconut ice cream', 3), ('mocha chingri', 3), ('paratha', 1)]",0,126.77,2531,13,9.58,3.7752
ORD248492,REST1781,CUST09933,COUR0445,-37.8176784,144.9512757,2020-12-27,19:42:51,1,1,Car,"[('chicken burger', 1), ('veggie pizza', 1), ('peri peri chicken wings', 2), ('pizza', 3)]",0,128.1,1426,3,8.27,5.9228
ORD255755,REST1801,CUST10591,COUR2871,-37.8065586,144.932506,2020-02-04,12:43:30,1,0,Bike,"[('crispy chicken', 1), ('panner tikka', 3), ('chicken guntur', 3)]",0,59.86,3232,16,9.72,5.4965
ORD141299,REST1858,CUST08018,COUR2749,-37.8188443,145.0068388,2020-02-06,07:38:54,0,0,Car,"[('fish', 1), ('appam', 3)]",0,76.57,2374,6,7.06,3.5499
ORD259684,REST0936,CUST02253,COUR3835,-37.8189288,144.9637475,2020-05-13,15:33:37,0,0,Bike,"[('banana chips', 2), ('saffron pilaf', 3), ('paratha', 3), ('mocha chingri', 3)]",40,117.462,3565,18,9.58,4.5456
ORD017288,REST1781,CUST07544,COUR1482,-37.8134616,144.944369,2020-03-20,00:43:30,0,0,Bike,"[('pizza', 1), ('chicken burger', 3), ('mango salad', 1)]",20,65.848,2306,12,8.27,4.0375
ORD126860,REST1450,CUST05292,COUR4191,-37.8176868,144.9692503,2020-03-30,12:15:49,1,0,Car,"[('jalebi', 2), ('rasgulla', 1), ('samosa', 1)]",45,30.184,1702,4,7.71,4.9958
ORD302622,REST0936,CUST01478,COUR3565,-37.7991608,144.9605854,2020-09-13,00:11:52,0,1,Motorbike,"[('banana chips', 3), ('begun pora', 1), ('paratha', 2)]",40,60.948,3413,7,9.58,4.6307
ORD103503,REST1858,CUST10954,COUR0270,-37.8076691,144.9481743,2020-09-30,02:22:25,0,0,Bike,"[('kerala parotta', 1), ('fish', 1)]",0,30.77,4359,22,7.06,5.1212
ORD065671,REST1781,CUST12132,COUR4197,-37.8253215,144.9888352,2020-11-02,07:03:17,0,0,Motorbike,"[('veggie pizza', 2), ('pizza', 1)]",0,41.93,2978,6,8.27,3.6599
ORD136293,REST1858,CUST07717,COUR1829,-37.7997947,144.9552864,2020-08-06,20:46:09,0,0,Car,"[('beef fry', 3), ('fish', 2)]",0,66.02,4006,10,7.06,3.9126
ORD041065,REST1781,CUST13784,COUR2567,-37.8114581,144.9646549,2020-06-10,18:43:30,1,0,Bike,"[('burgers', 2), ('beef burger', 3)]",10,34.173,408,2,8.27,4.0822
ORD330070,REST0936,CUST12533,COUR0311,-37.8190296,144.9529903,2020-06-13,16:36:55,0,1,Bike,"[('cheesecake', 3), ('banana chips', 3), ('paratha', 1)]",45,57.844,2585,13,9.58,4.9131
ORD156643,REST1781,CUST06837,COUR2940,-37.8095139,144.9577448,2020-06-26,18:31:38,1,0,Motorbike,"[('veggie pizza', 2), ('peri peri chicken wings', 3)]",0,72.89,1184,2,8.27,4.5252
ORD066198,REST0936,CUST05567,COUR0964,-37.8128321,144.9487768,2020-05-12,16:48:47,0,0,Motorbike,"[('begun pora', 3), ('banana chips', 1)]",45,51.139,2432,5,9.58,2.8451
ORD341281,REST1858,CUST01144,COUR0982,-37.8241184,144.9534812,2020-10-22,15:05:56,0,0,Bike,"[('kerala parotta', 2), ('roast beef', 2), ('mackerel fry', 1)]",0,82.49,3108,16,7.06,4.6489
ORD241173,REST1781,CUST11366,COUR1099,-37.8150872,144.960665,2020-03-20,15:29:40,0,0,Bike,"[('chicken burger', 2), ('mango salad', 2), ('pizza', 3)]",40,84.294,525,3,8.27,2.731
ORD272509,REST1781,CUST04537,COUR3017,-37.8171479,144.9513388,2020-11-26,05:40:13,0,0,Car,"[('pizza', 2), ('peri peri chicken wings', 1)]",0,65.27,2320,6,8.27,3.2197
ORD072211,REST0936,CUST09698,COUR3693,-37.8080834,145.0088378,2020-09-26,01:03:17,0,1,Motorbike,"[('tender coconut ice cream', 3), ('mocha chingri', 3)]",45,64.466,7360,15,9.58,4.9447
ORD307685,REST1781,CUST12038,COUR0076,-37.8010574,144.9567674,2020-10-23,08:34:17,0,0,Car,"[('coffee', 3), ('pizza', 2), ('veggie pizza', 2), ('beef burger', 3)]",20,128.608,1885,5,8.27,2.9745
ORD262010,REST1450,CUST09653,COUR4840,-37.8014837,145.004298,2020-04-29,15:41:32,0,0,Motorbike,"[('rasgulla', 2), ('puri sabzi', 3), ('samosa', 3), ('jalebi', 2)]",0,161.6,5652,11,7.71,4.0566
ORD012070,REST1801,CUST12386,COUR4253,-37.8073473,144.9455222,2020-05-20,20:06:35,0,0,Car,"[('chicken boneless biryani', 3), ('crispy chicken', 1), ('hyderabadi biryani', 2), ('chicken guntur', 1)]",0,105.7,2138,5,9.72,3.0101
ORD190396,REST1858,CUST13837,COUR3647,-37.8192664,144.9604742,2020-10-04,23:28:21,0,1,Motorbike,"[('crab toast', 2), ('fish', 1), ('roast beef', 1), ('kerala parotta', 3)]",10,81.891,2359,5,7.06,4.7842
ORD032799,REST1801,CUST05805,COUR4326,-37.8142552,144.9746665,2020-08-01,11:24:23,0,1,Motorbike,"[('chicken guntur', 3), ('tandoori chicken', 2), ('panner tikka', 3)]",0,84.87,2520,5,9.72,3.8176
ORD029964,REST1801,CUST10972,COUR2650,-37.8066892,144.9457376,2020-07-15,23:56:02,0,0,Motorbike,"[('chicken boneless biryani', 2), ('panner tikka', 2), ('naan', 3)]",20,76.944,2189,4,9.72,2.4834
ORD306446,REST1858,CUST11101,COUR2517,-37.8084858,144.9467792,2020-11-21,12:59:20,1,1,Motorbike,"[('roast beef', 2), ('crab toast', 2), ('beef fry', 1), ('appam', 1)]",10,75.942,4467,9,7.06,6.2859
ORD198035,REST1450,CUST13546,COUR3773,-37.8059919,144.9734817,2020-10-27,16:01:19,0,0,Motorbike,"[('poha', 1), ('rasgulla', 3)]",0,74.19,2603,5,7.71,3.4581
ORD128037,REST0936,CUST07100,COUR1846,-37.8056041,144.95362,2020-07-14,20:10:32,0,0,Car,"[('tender coconut ice cream', 3), ('mocha chingri', 2), ('banana chips', 1), ('saffron pilaf', 3)]",0,187.92,2108,5,9.58,3.2227
ORD102275,REST1450,CUST08860,COUR3177,-37.8185853,144.9671835,2020-03-03,10:09:13,0,0,Car,"[('jalebi', 3), ('kachori', 2)]",45,25.592,1347,3,7.71,3.2111
ORD308037,REST1801,CUST05596,COUR3033,-37.814798,144.9361659,2020-07-01,00:19:46,0,0,Bike,"[('hyderabadi biryani', 3), ('naan', 2), ('chicken boneless biryani', 1), ('chicken guntur', 3)]",0,99.85,3232,16,9.72,3.9256
ORD062083,REST1801,CUST06644,COUR3503,-37.8239391,144.9825012,2020-06-13,12:23:44,1,1,Motorbike,"[('hyderabadi biryani', 2), ('panner tikka', 1), ('naan', 2)]",0,47.08,3919,8,9.72,5.9939
ORD313276,REST1858,CUST13956,COUR4874,-37.8123649,144.9544336,2020-06-26,03:33:37,0,0,Motorbike,"[('mackerel fry', 3), ('fish', 2), ('beef fry', 2), ('crab toast', 2)]",40,62.154,3476,7,7.06,3.6104
ORD284505,REST1858,CUST11517,COUR0124,-37.8231414,144.9778518,2020-05-21,01:58:40,0,0,Motorbike,"[('appam', 2), ('fish', 1)]",20,45.352,801,2,7.06,2.9051
ORD063490,REST1801,CUST10126,COUR4378,-37.8178522,145.014074,2020-10-02,05:28:21,0,0,Car,"[('tandoori chicken', 2), ('chicken boneless biryani', 1)]",10,54.45,6204,15,9.72,3.823
ORD257816,REST1858,CUST02901,COUR4889,-37.8054866,144.9882968,2020-03-07,11:04:36,0,1,Motorbike,"[('beef fry', 3), ('appam', 1), ('mackerel fry', 1)]",0,64.37,2025,4,7.06,4.2758
ORD315110,REST1450,CUST06030,COUR0825,-37.805314,144.9416774,2020-06-19,04:36:55,0,0,Car,"[('puri sabzi', 3), ('samosa', 3)]",0,97.56,2110,5,7.71,3.4171
ORD316357,REST1801,CUST08580,COUR2857,-37.8131742,144.9449747,2020-06-19,02:58:01,0,0,Bike,"[('crispy chicken', 3), ('chicken boneless biryani', 2), ('panner tikka', 3), ('chicken guntur', 2)]",10,109.179,2672,13,9.72,3.8407
ORD067412,REST1858,CUST00704,COUR2477,-37.8098444,144.9938212,2020-03-25,23:36:15,0,0,Bike,"[('fish', 2), ('kerala parotta', 1), ('appam', 2)]",0,87.46,1925,10,7.06,3.969
ORD282779,REST1858,CUST11216,COUR1913,-37.8017852,144.9478068,2020-03-15,04:09:13,0,1,Car,"[('crab toast', 1), ('beef fry', 2), ('appam', 2), ('mackerel fry', 2)]",40,54.906,4567,11,7.06,5.0125
ORD229688,REST1781,CUST06535,COUR0381,-37.8241714,144.9839647,2020-05-15,18:15:49,1,0,Motorbike,"[('mango salad', 2), ('beef burger', 3), ('coffee', 3)]",10,127.152,2656,5,8.27,4.9083
ORD080291,REST0936,CUST06936,COUR4602,-37.8058725,144.9557611,2020-12-04,12:03:57,1,0,Bike,"[('tender coconut ice cream', 2), ('banana chips', 2), ('mocha chingri', 1), ('paratha', 2)]",20,93.272,2303,12,9.58,5.2956
ORD298092,REST1801,CUST09563,COUR1467,-37.8260097,144.9666793,2020-06-08,06:11:52,0,0,Car,"[('tandoori chicken', 3), ('hyderabadi biryani', 1)]",0,64.34,3375,8,9.72,3.3603
ORD177903,REST1801,CUST00016,COUR3813,-37.8173782,144.95609,2020-12-17,12:11:52,1,0,Motorbike,"[('chicken boneless biryani', 3), ('crispy chicken', 1)]",0,80.89,2458,5,9.72,4.7578
ORD281423,REST1781,CUST08576,COUR2745,-37.8082365,144.9421811,2020-10-20,06:11:52,0,0,Bike,"[('beef burger', 3), ('peri peri chicken wings', 3)]",0,81.12,2669,13,8.27,3.6324
ORD113756,REST1801,CUST11298,COUR4737,-37.8172405,144.9673527,2020-10-18,12:15:49,1,1,Bike,"[('naan', 2), ('tandoori chicken', 2), ('panner tikka', 3), ('chicken boneless biryani', 3)]",45,82.511,2286,11,9.72,6.2444
ORD224825,REST1781,CUST06134,COUR3646,-37.8068823,144.9578895,2020-08-01,14:22:25,0,1,Bike,"[('mango salad', 3), ('pizza', 2), ('beef burger', 3), ('coffee', 1)]",10,149.04,1484,7,8.27,4.5198
ORD160829,REST0936,CUST12039,COUR3531,-37.8010955,144.9567447,2020-01-17,20:34:17,0,0,Car,"[('saffron pilaf', 3), ('mocha chingri', 2), ('banana chips', 2), ('cheesecake', 3)]",10,166.98,2812,7,9.58,3.1411
ORD323420,REST1781,CUST03813,COUR3827,-37.8029019,145.0098722,2020-01-14,23:52:05,0,0,Bike,"[('coffee', 1), ('veggie pizza', 3), ('burgers', 2)]",45,34.001,4996,25,8.27,5.1404
ORD201627,REST0936,CUST10562,COUR3552,-37.8232897,144.9399679,2020-03-20,16:52:44,0,0,Car,"[('cheesecake', 2), ('mocha chingri', 1), ('banana chips', 1)]",45,35.04,3321,8,9.58,3.3221
ORD028612,REST1450,CUST13911,COUR4587,-37.8094863,144.9639495,2020-03-26,21:17:48,0,0,Bike,"[('poha', 1), ('rasgulla', 2), ('kachori', 3), ('puri sabzi', 1)]",0,96.45,1744,9,7.71,3.9727
ORD066770,REST1858,CUST04141,COUR1554,-37.818821,144.9818722,2020-07-29,17:52:05,0,0,Car,"[('fish', 2), ('crab toast', 2), ('appam', 1), ('kerala parotta', 3)]",45,58.608,392,1,7.06,2.8563
ORD341364,REST0936,CUST05436,COUR2610,-37.8141478,144.9640239,2020-01-21,15:17:48,0,0,Motorbike,"[('cheesecake', 1), ('mocha chingri', 2), ('paratha', 1), ('banana chips', 3)]",0,118.57,3434,7,9.58,3.3964
ORD214468,REST0936,CUST06878,COUR1915,-37.806433,144.9615085,2020-10-20,07:15:09,0,0,Car,"[('begun pora', 1), ('cheesecake', 1)]",0,37.13,2822,7,9.58,3.0541
ORD065850,REST1781,CUST10106,COUR4806,-37.803438,144.9534492,2020-10-25,04:36:55,0,1,Motorbike,"[('burgers', 1), ('beef burger', 3), ('coffee', 1)]",20,44.144,1969,4,8.27,4.2369
ORD324120,REST1450,CUST13042,COUR1492,-37.8120674,144.953418,2020-10-05,05:24:23,0,0,Bike,"[('kachori', 1), ('samosa', 1)]",40,12.57,963,5,7.71,3.2738
ORD326346,REST0936,CUST10604,COUR0190,-37.8063862,144.9323324,2020-08-17,22:13:11,0,0,Car,"[('tender coconut ice cream', 3), ('banana chips', 2), ('cheesecake', 2), ('paratha', 3)]",0,151.82,31,0,9.58,2.804
ORD166921,REST1450,CUST04714,COUR3712,-37.81575,144.9215559,2020-11-25,04:29:00,0,0,Car,"[('samosa', 3), ('puri sabzi', 3), ('kachori', 3)]",40,73.224,3844,9,7.71,4.1436
ORD045760,REST1781,CUST06188,COUR1891,-37.814246,144.9352781,2020-04-29,20:22:25,0,0,Car,"[('chicken burger', 2), ('mango salad', 2), ('beef burger', 2)]",0,87.58,3271,8,8.27,3.5276
ORD306718,REST1801,CUST11796,COUR2254,-37.8144347,144.9429071,2020-11-25,22:52:44,0,0,Car,"[('naan', 1), ('hyderabadi biryani', 1), ('tandoori chicken', 3)]",10,69.444,2839,7,9.72,3.2403
ORD050911,REST1450,CUST04664,COUR0441,-37.8065367,144.932218,2020-07-09,12:35:36,1,0,Car,"[('samosa', 3), ('poha', 1), ('puri sabzi', 3), ('jalebi', 1)]",0,115.97,2694,6,7.71,4.8193
ORD331733,REST1858,CUST11241,COUR2096,-37.8192441,144.9330365,2020-11-22,23:32:18,0,1,Bike,"[('kerala parotta', 2), ('roast beef', 1), ('fish', 2)]",45,45.529,4913,25,7.06,6.5561
ORD136584,REST1450,CUST12822,COUR1864,-37.815786,145.0094576,2020-09-02,21:05:56,0,0,Motorbike,"[('puri sabzi', 1), ('jalebi', 3), ('poha', 2), ('samosa', 1)]",40,47.646,5303,11,7.71,3.8768
ORD290642,REST1781,CUST02255,COUR1691,-37.8193695,144.9618249,2020-09-01,10:40:52,0,0,Car,"[('chicken burger', 3), ('coffee', 1), ('pizza', 3)]",20,103.44,1257,3,8.27,3.415
ORD142887,REST1781,CUST09517,COUR2817,-37.8109257,145.004158,2020-12-25,03:45:29,0,0,Car,"[('pizza', 1), ('beef burger', 1), ('coffee', 3), ('burgers', 1)]",0,106.77,3947,9,8.27,3.6344
ORD094683,REST1801,CUST05193,COUR4456,-37.8212612,144.9577952,2020-04-11,00:00:00,0,1,Bike,"[('hyderabadi biryani', 3), ('crispy chicken', 2), ('tandoori chicken', 3), ('naan', 2)]",45,71.962,2925,15,9.72,5.031
ORD255165,REST1801,CUST07700,COUR1801,-37.8131128,145.0112186,2020-02-22,13:15:09,1,1,Bike,"[('chicken boneless biryani', 2), ('panner tikka', 3)]",10,57.492,5533,28,9.72,7.6091
ORD077179,REST1781,CUST04332,COUR1666,-37.8203203,144.9808828,2020-12-09,07:58:40,0,0,Car,"[('pizza', 2), ('veggie pizza', 3)]",45,41.069,2054,5,8.27,3.2617
ORD104816,REST1450,CUST04948,COUR2625,-37.8121209,144.9739529,2020-10-28,04:40:52,0,0,Motorbike,"[('poha', 3), ('puri sabzi', 1), ('rasgulla', 2), ('jalebi', 2)]",0,108.79,1956,4,7.71,3.1798
ORD198218,REST1450,CUST06901,COUR4420,-37.8041843,144.9585476,2020-10-06,12:39:33,1,0,Car,"[('kachori', 1), ('poha', 3)]",0,33.18,2100,5,7.71,5.1318
ORD128926,REST1450,CUST07561,COUR4362,-37.8093417,144.9923949,2020-03-09,18:31:38,1,0,Car,"[('rasgulla', 2), ('samosa', 1), ('poha', 3)]",0,81.71,3880,9,7.71,4.9985
ORD048106,REST1781,CUST03830,COUR0574,-37.8125353,144.9865756,2020-08-11,10:32:58,0,0,Motorbike,"[('burgers', 3), ('peri peri chicken wings', 3)]",20,57.24,2432,5,8.27,2.9465
ORD288889,REST1801,CUST02400,COUR1810,-37.8065954,144.9860905,2020-01-11,17:36:15,0,1,Motorbike,"[('panner tikka', 2), ('chicken guntur', 3), ('hyderabadi biryani', 3)]",0,63.83,2756,6,9.72,4.009
ORD214285,REST1801,CUST00001,COUR0585,-37.8116151,144.9456443,2020-04-29,06:59:20,0,0,Bike,"[('hyderabadi biryani', 2), ('crispy chicken', 3)]",0,53.65,3000,15,9.72,4.0716
ORD291713,REST0936,CUST08862,COUR1125,-37.8189997,144.9526099,2020-07-27,03:41:32,0,0,Motorbike,"[('saffron pilaf', 2), ('banana chips', 1), ('paratha', 2)]",0,85.54,2533,5,9.58,2.8457
ORD084190,REST0936,CUST08883,COUR4795,-37.8142944,145.0062345,2020-02-17,13:34:56,1,0,Car,"[('banana chips', 1), ('cheesecake', 3)]",10,51.309,7155,17,9.58,5.8173
ORD140209,REST1450,CUST08131,COUR3824,-37.8166314,145.0073694,2020-07-26,07:07:15,0,1,Motorbike,"[('rasgulla', 2), ('puri sabzi', 3)]",0,103.09,5002,10,7.71,5.0593
ORD109757,REST1781,CUST12846,COUR0614,-37.8005849,144.9344349,2020-09-20,00:59:20,0,1,Car,"[('beef burger', 1), ('peri peri chicken wings', 2)]",0,45.21,6624,16,8.27,5.6369
ORD226022,REST1450,CUST12131,COUR2531,-37.8241924,144.9890836,2020-09-19,11:40:13,0,1,Car,"[('rasgulla', 3), ('puri sabzi', 1)]",40,51.348,3520,8,7.71,4.593
ORD348923,REST1450,CUST03713,COUR2861,-37.8052407,144.9723874,2020-10-04,15:53:24,0,1,Car,"[('rasgulla', 1), ('puri sabzi', 3), ('poha', 3)]",0,106.16,2698,6,7.71,4.7683
ORD321838,REST1781,CUST00299,COUR1799,-37.8001034,144.9610721,2020-12-13,02:50:06,0,1,Motorbike,"[('coffee', 3), ('pizza', 3), ('peri peri chicken wings', 2)]",40,105.396,1859,4,8.27,4.243
ORD303009,REST0936,CUST01398,COUR4298,-37.7995785,144.9596198,2020-10-22,06:51:25,0,0,Motorbike,"[('begun pora', 1), ('banana chips', 3), ('mocha chingri', 2)]",0,121.0,3262,7,9.58,3.4312
ORD192350,REST1858,CUST13960,COUR0807,-37.812398,144.9540538,2020-12-03,23:24:23,0,0,Motorbike,"[('roast beef', 1), ('appam', 2)]",10,54.9,3502,7,7.06,3.6493
ORD242662,REST1450,CUST06952,COUR4243,-37.8062667,144.9599949,2020-04-03,13:11:12,1,0,Bike,"[('rasgulla', 3), ('samosa', 2)]",20,73.144,1957,10,7.71,5.1401
ORD105059,REST1450,CUST02223,COUR2849,-37.8083652,144.9611006,2020-01-07,12:55:23,1,0,Bike,"[('rasgulla', 3), ('kachori', 3), ('jalebi', 2)]",45,60.759,1831,9,7.71,5.1944
ORD143631,REST1781,CUST09788,COUR3929,-37.8071992,144.9775117,2020-04-20,15:49:27,0,0,Car,"[('burgers', 3), ('veggie pizza', 3)]",20,35.688,1814,4,8.27,3.1978
ORD057630,REST1450,CUST00334,COUR4571,-37.8193841,144.9894776,2020-03-11,04:48:47,0,0,Motorbike,"[('poha', 3), ('kachori', 3), ('jalebi', 3), ('rasgulla', 1)]",0,101.66,3315,7,7.71,3.4829
ORD217288,REST1858,CUST11381,COUR2398,-37.8077429,144.9515704,2020-03-23,23:08:34,0,0,Motorbike,"[('mackerel fry', 2), ('kerala parotta', 1)]",0,38.5,4111,8,7.06,3.218
ORD058433,REST1858,CUST06591,COUR0102,-37.8249605,144.9848557,2020-11-05,17:32:18,0,0,Motorbike,"[('mackerel fry', 3), ('fish', 3), ('beef fry', 1), ('crab toast', 2)]",45,60.39,624,1,7.06,3.3382
ORD315990,REST1858,CUST12511,COUR2151,-37.8188629,144.9531155,2020-12-09,15:17:48,0,0,Bike,"[('kerala parotta', 3), ('roast beef', 3), ('beef fry', 2)]",45,69.674,3187,16,7.06,4.3332
ORD339353,REST1801,CUST01684,COUR3662,-37.8216741,145.0007409,2020-09-14,20:18:27,0,0,Motorbike,"[('panner tikka', 3), ('crispy chicken', 2), ('hyderabadi biryani', 3)]",45,36.839,5127,10,9.72,3.4373
ORD047832,REST1801,CUST03155,COUR1721,-37.8064631,144.9720713,2020-11-12,16:56:42,0,0,Bike,"[('crispy chicken', 1), ('tandoori chicken', 3)]",10,62.541,1653,8,9.72,3.4423
ORD332312,REST1781,CUST10797,COUR0169,-37.8140756,144.9558308,2020-02-18,03:49:27,0,0,Bike,"[('peri peri chicken wings', 1), ('pizza', 1), ('beef burger', 2), ('chicken burger', 3)]",0,95.22,1118,6,8.27,3.4387
ORD099235,REST0936,CUST04494,COUR1374,-37.8217484,144.9680858,2020-05-30,02:42:11,0,1,Car,"[('paratha', 1), ('banana chips', 3), ('cheesecake', 2)]",0,92.6,4378,11,9.58,4.7325
ORD197245,REST1858,CUST01223,COUR1490,-37.8042304,144.9947019,2020-04-19,12:47:28,1,1,Car,"[('appam', 2), ('crab toast', 3), ('beef fry', 3)]",0,88.87,2560,6,7.06,6.1674
ORD117479,REST1450,CUST02517,COUR2626,-37.8155917,145.0059186,2020-04-11,15:37:34,0,1,Bike,"[('rasgulla', 1), ('puri sabzi', 3), ('poha', 3), ('samosa', 1)]",45,65.422,4946,25,7.71,6.305
ORD276364,REST1781,CUST07083,COUR2286,-37.8024488,144.9566083,2020-09-27,06:00:00,0,1,Bike,"[('mango salad', 3), ('veggie pizza', 1)]",0,78.19,1784,9,8.27,4.499
ORD139668,REST0936,CUST00690,COUR1527,-37.801422,144.9951421,2020-02-29,04:32:58,0,1,Car,"[('saffron pilaf', 3), ('paratha', 1)]",40,48.144,6444,15,9.58,5.2757
ORD001687,REST1781,CUST00754,COUR3526,-37.8129752,144.9619223,2020-09-21,13:19:07,1,0,Motorbike,"[('burgers', 3), ('peri peri chicken wings', 3)]",45,39.353,526,1,8.27,4.0631
ORD058197,REST1858,CUST00154,COUR0280,-37.811942,145.0039821,2020-04-30,02:30:19,0,0,Bike,"[('roast beef', 3), ('fish', 2)]",40,58.548,2649,13,7.06,4.2002
ORD255208,REST1858,CUST11969,COUR3360,-37.8198085,144.9902272,2020-12-14,00:15:49,0,0,Car,"[('roast beef', 1), ('fish', 3)]",10,64.827,753,2,7.06,3.1967
ORD099483,REST1781,CUST06647,COUR4744,-37.8241367,144.9848488,2020-09-02,19:46:48,1,0,Car,"[('veggie pizza', 3), ('mango salad', 1), ('coffee', 3)]",20,95.392,2554,6,8.27,4.8708
ORD204864,REST0936,CUST02871,COUR2614,-37.8184073,144.9798435,2020-12-27,03:53:24,0,1,Motorbike,"[('begun pora', 3), ('tender coconut ice cream', 1), ('banana chips', 2)]",20,105.664,5112,10,9.58,4.7119
ORD128031,REST1781,CUST08706,COUR4690,-37.8180945,144.9650143,2020-03-15,06:11:52,0,1,Motorbike,"[('pizza', 3), ('veggie pizza', 2), ('burgers', 2), ('chicken burger', 2)]",0,124.23,702,1,8.27,4.1003
ORD014457,REST1858,CUST11115,COUR3930,-37.8103338,144.9470645,2020-05-11,04:17:08,0,0,Motorbike,"[('roast beef', 2), ('fish', 2), ('beef fry', 3), ('appam', 1)]",20,102.704,4267,9,7.06,4.3079
ORD292052,REST1781,CUST06157,COUR0837,-37.8078288,144.9577575,2020-08-25,17:16:29,0,0,Car,"[('pizza', 3), ('peri peri chicken wings', 2), ('mango salad', 3)]",45,96.795,1363,3,8.27,2.9164
ORD089159,REST1858,CUST08124,COUR3300,-37.8187665,145.0017906,2020-09-29,01:46:48,0,0,Motorbike,"[('mackerel fry', 1), ('fish', 1), ('kerala parotta', 3), ('beef fry', 2)]",0,92.22,1883,4,7.06,3.0626
ORD176168,REST1801,CUST01927,COUR4661,-37.8230736,144.976676,2020-09-12,20:54:03,0,1,Motorbike,"[('tandoori chicken', 1), ('chicken boneless biryani', 1)]",0,41.6,3447,7,9.72,4.2456
ORD148055,REST1858,CUST12721,COUR2445,-37.8149362,144.9273511,2020-10-11,09:45:29,0,1,Bike,"[('roast beef', 3), ('beef fry', 1), ('kerala parotta', 1), ('appam', 3)]",0,147.92,6714,34,7.06,7.4594
ORD248200,REST0936,CUST08182,COUR2535,-37.8167697,145.0071835,2020-04-05,17:20:26,0,1,Car,"[('paratha', 1), ('banana chips', 3), ('mocha chingri', 3)]",45,68.899,7365,18,9.58,5.1331
ORD230162,REST1781,CUST08543,COUR3662,-37.8203118,144.9790144,2020-03-02,08:46:09,0,0,Motorbike,"[('pizza', 1), ('mango salad', 2), ('chicken burger', 1)]",10,73.323,1928,4,8.27,2.9536
ORD054253,REST1858,CUST01374,COUR3211,-37.7988615,144.9578438,2020-08-16,01:15:09,0,1,Motorbike,"[('appam', 1), ('crab toast', 3), ('mackerel fry', 2)]",45,33.82,4011,8,7.06,4.7133
ORD149175,REST1858,CUST08813,COUR3768,-37.82962,144.98793,2020-12-10,18:47:28,1,0,Bike,"[('beef fry', 2), ('crab toast', 2), ('roast beef', 1), ('fish', 1)]",10,63.819,3990,20,7.06,6.0579
ORD142767,REST1801,CUST00300,COUR4820,-37.8023661,144.9620569,2020-12-23,22:36:55,0,0,Bike,"[('hyderabadi biryani', 1), ('tandoori chicken', 1)]",45,14.6,469,2,9.72,2.5752
ORD084209,REST0936,CUST07632,COUR1114,-37.8137278,144.9398582,2020-11-02,00:39:33,0,0,Motorbike,"[('cheesecake', 2), ('mocha chingri', 3)]",40,49.77,1479,3,9.58,2.614
ORD134673,REST1858,CUST03841,COUR1411,-37.8103133,144.9883833,2020-10-04,10:21:05,0,1,Bike,"[('fish', 2), ('roast beef', 2), ('beef fry', 3), ('mackerel fry', 1)]",10,108.747,1582,8,7.06,4.6498
ORD076194,REST1858,CUST05453,COUR2368,-37.8116636,144.9652288,2020-12-20,15:33:37,0,1,Bike,"[('crab toast', 1), ('appam', 3)]",10,58.761,2374,12,7.06,4.7125
ORD102563,REST1450,CUST02442,COUR4814,-37.8091594,144.9440703,2020-07-07,17:32:18,0,0,Car,"[('puri sabzi', 1), ('jalebi', 2), ('samosa', 3)]",0,78.24,1691,4,7.71,3.4127
ORD193659,REST0936,CUST05251,COUR0242,-37.8180119,144.9649758,2020-07-27,15:13:50,0,0,Motorbike,"[('saffron pilaf', 2), ('paratha', 1)]",0,56.68,3739,7,9.58,2.8896
ORD201754,REST0936,CUST12940,COUR0542,-37.8103177,144.9726522,2020-01-12,12:00:00,1,1,Bike,"[('begun pora', 1), ('banana chips', 2)]",40,37.896,4022,20,9.58,6.902
ORD011502,REST1858,CUST05747,COUR0118,-37.8186891,144.9664191,2020-04-07,11:08:34,0,0,Motorbike,"[('fish', 2), ('mackerel fry', 1), ('crab toast', 2)]",45,31.62,1984,4,7.06,3.4044
ORD233252,REST1858,CUST02884,COUR4663,-37.8190062,144.9891819,2020-10-10,21:25:42,0,1,Motorbike,"[('crab toast', 1), ('appam', 2)]",45,24.976,730,1,7.06,3.6923
ORD135805,REST1858,CUST05842,COUR0990,-37.8131258,144.9767318,2020-07-27,17:24:23,0,0,Car,"[('beef fry', 2), ('kerala parotta', 3)]",10,56.664,1384,3,7.06,3.1656
ORD081956,REST1801,CUST07714,COUR0593,-37.7998258,144.9551209,2020-04-11,08:06:35,0,1,Bike,"[('naan', 2), ('crispy chicken', 2), ('hyderabadi biryani', 3), ('tandoori chicken', 2)]",0,111.94,565,3,9.72,3.7819
ORD069023,REST0936,CUST01839,COUR1535,-37.8213165,145.0122742,2020-07-17,07:58:40,0,0,Motorbike,"[('cheesecake', 3), ('paratha', 2), ('saffron pilaf', 1)]",0,80.39,8120,16,9.58,4.3015
ORD229286,REST1858,CUST08158,COUR3798,-37.8187351,145.0003355,2020-01-21,06:51:25,0,0,Motorbike,"[('fish', 3), ('appam', 3), ('beef fry', 3), ('crab toast', 2)]",0,153.89,1740,3,7.06,3.5722
ORD201161,REST1450,CUST04993,COUR1826,-37.8126529,144.9740747,2020-02-10,04:29:00,0,0,Bike,"[('puri sabzi', 1), ('rasgulla', 3), ('jalebi', 1)]",10,86.085,1895,9,7.71,3.571
ORD189649,REST1450,CUST08429,COUR0714,-37.8065824,144.9629048,2020-08-30,22:05:16,0,1,Motorbike,"[('samosa', 3), ('poha', 3), ('rasgulla', 1)]",10,76.806,2072,4,7.71,4.339
ORD306853,REST1858,CUST11320,COUR1633,-37.7889148,144.9378629,2020-07-03,20:38:14,0,0,Motorbike,"[('crab toast', 1), ('fish', 3), ('beef fry', 2)]",10,70.092,7136,14,7.06,4.813
ORD343897,REST0936,CUST00961,COUR4607,-37.813073,144.963276,2020-09-07,03:57:21,0,0,Motorbike,"[('mocha chingri', 3), ('saffron pilaf', 3), ('tender coconut ice cream', 2)]",10,151.281,3274,7,9.58,3.2323
ORD312898,REST1450,CUST10677,COUR3802,-37.8179567,144.9808606,2020-05-27,08:26:22,0,0,Bike,"[('poha', 1), ('jalebi', 1)]",10,16.569,2614,13,7.71,3.8057
ORD261503,REST1858,CUST11522,COUR3799,-37.8205164,144.9942283,2020-07-16,10:13:11,0,0,Bike,"[('appam', 2), ('roast beef', 2)]",0,82.24,1034,5,7.06,3.4454
ORD084094,REST0936,CUST13098,COUR0170,-37.8119045,145.0035363,2020-10-07,17:44:10,0,0,Motorbike,"[('paratha', 3), ('begun pora', 2)]",20,62.24,6703,13,9.58,3.9045
ORD013949,REST1858,CUST01367,COUR2769,-37.8008597,144.9607525,2020-08-26,06:27:41,0,0,Bike,"[('beef fry', 2), ('kerala parotta', 3)]",20,50.368,3697,18,7.06,4.6341
ORD184779,REST0936,CUST13591,COUR4777,-37.8169255,144.9654367,2020-12-21,22:17:08,0,0,Car,"[('banana chips', 1), ('mocha chingri', 1)]",0,38.57,3726,9,9.58,3.3018
ORD194029,REST0936,CUST06556,COUR2477,-37.8247614,144.9847158,2020-01-04,06:43:30,0,1,Bike,"[('mocha chingri', 3), ('tender coconut ice cream', 2)]",45,53.576,5810,29,9.58,6.4709
ORD240877,REST0936,CUST01310,COUR3572,-37.8135427,144.9905938,2020-08-27,21:25:42,0,0,Bike,"[('tender coconut ice cream', 2), ('banana chips', 3), ('saffron pilaf', 1)]",45,66.583,5722,29,9.58,5.7118
ORD124964,REST1781,CUST04375,COUR1701,-37.8191293,144.9788533,2020-07-25,02:50:06,0,1,Bike,"[('peri peri chicken wings', 3), ('mango salad', 1), ('chicken burger', 3)]",20,90.616,1908,10,8.27,4.5703
ORD088505,REST1450,CUST02171,COUR4921,-37.8036348,144.9458995,2020-06-19,03:13:50,0,0,Car,"[('poha', 1), ('jalebi', 1)]",0,18.41,2130,5,7.71,3.2722
ORD265885,REST1781,CUST02291,COUR1423,-37.8196493,144.9616537,2020-09-17,01:30:59,0,0,Motorbike,"[('veggie pizza', 1), ('pizza', 3), ('coffee', 1)]",45,56.502,1293,3,8.27,3.1578
ORD115053,REST1858,CUST01307,COUR3652,-37.8103283,144.9834863,2020-09-14,10:01:19,0,0,Car,"[('mackerel fry', 2), ('crab toast', 3)]",0,41.61,1436,3,7.06,3.1369
ORD185292,REST1801,CUST04128,COUR0843,-37.8198041,144.9852907,2020-02-15,16:32:58,0,1,Bike,"[('tandoori chicken', 1), ('chicken boneless biryani', 3)]",0,87.0,3811,19,9.72,5.7625
ORD227533,REST0936,CUST06165,COUR1062,-37.8134313,144.944043,2020-05-01,05:36:15,0,0,Motorbike,"[('begun pora', 2), ('cheesecake', 2), ('banana chips', 1)]",45,51.458,1555,3,9.58,2.948
ORD313422,REST1858,CUST03350,COUR1093,-37.8113891,144.9534946,2020-03-31,06:55:23,0,0,Motorbike,"[('fish', 2), ('appam', 3), ('beef fry', 1)]",10,93.798,3590,7,7.06,3.6847
ORD134848,REST1450,CUST03327,COUR1924,-37.8033485,144.9526442,2020-02-24,21:29:40,0,0,Bike,"[('samosa', 2), ('kachori', 2), ('puri sabzi', 2), ('jalebi', 1)]",10,82.287,1954,10,7.71,3.6797
ORD284091,REST0936,CUST00344,COUR2066,-37.8202713,144.9818494,2020-05-24,20:42:11,0,1,Motorbike,"[('saffron pilaf', 2), ('mocha chingri', 2)]",10,77.094,5483,11,9.58,4.7472
ORD313181,REST1801,CUST06777,COUR2644,-37.8090031,144.9449882,2020-07-07,22:01:19,0,0,Bike,"[('chicken guntur', 1), ('tandoori chicken', 1), ('crispy chicken', 1)]",10,37.098,2135,11,9.72,3.6245
ORD165227,REST1858,CUST05768,COUR4986,-37.8083116,144.9409504,2020-12-09,09:29:40,0,0,Motorbike,"[('kerala parotta', 1), ('fish', 2)]",45,26.235,4774,10,7.06,3.8298
ORD206592,REST1450,CUST13286,COUR2690,-37.8222308,144.9782323,2020-01-29,10:52:44,0,0,Car,"[('rasgulla', 1), ('puri sabzi', 1)]",10,37.512,2527,6,7.71,3.4501
ORD302691,REST1858,CUST01491,COUR3047,-37.8175855,144.9689222,2020-07-10,04:01:19,0,0,Motorbike,"[('crab toast', 1), ('beef fry', 3), ('kerala parotta', 2)]",0,65.49,1673,3,7.06,3.166
ORD346470,REST1781,CUST01733,COUR4133,-37.8241548,144.9439123,2020-11-26,06:59:20,0,0,Car,"[('beef burger', 3), ('coffee', 1)]",40,29.7,2766,7,8.27,3.5029
ORD007308,REST0936,CUST08829,COUR3106,-37.8044471,144.9616909,2020-12-18,17:00:39,0,0,Motorbike,"[('banana chips', 2), ('paratha', 2), ('cheesecake', 3), ('mocha chingri', 2)]",0,133.97,3020,6,9.58,3.1804
ORD012893,REST0936,CUST08061,COUR0554,-37.8199883,145.0127302,2020-02-27,22:21:05,0,0,Bike,"[('tender coconut ice cream', 1), ('cheesecake', 2), ('banana chips', 1), ('paratha', 3)]",20,74.336,7989,40,9.58,6.9798
ORD129537,REST1801,CUST04929,COUR3426,-37.8142605,144.9727854,2020-11-04,16:21:05,0,0,Car,"[('panner tikka', 2), ('tandoori chicken', 2), ('naan', 3)]",20,70.864,2553,6,9.72,3.4737
ORD317236,REST0936,CUST06300,COUR0539,-37.8067934,144.9559989,2020-02-25,07:58:40,0,0,Car,"[('begun pora', 1), ('paratha', 2), ('saffron pilaf', 1)]",0,67.24,2427,6,9.58,2.9199
ORD090528,REST1858,CUST02867,COUR0241,-37.8203369,144.9902518,2020-06-22,07:30:59,0,0,Car,"[('fish', 1), ('mackerel fry', 3)]",0,53.92,653,2,7.06,3.282
ORD307415,REST1781,CUST05656,COUR1007,-37.8135819,144.9371435,2020-01-27,18:43:30,1,0,Car,"[('chicken burger', 2), ('beef burger', 1), ('coffee', 2)]",0,78.49,3132,8,8.27,4.7826
ORD088762,REST1801,CUST08536,COUR2179,-37.8233577,144.9762988,2020-02-26,23:32:18,0,0,Car,"[('hyderabadi biryani', 3), ('naan', 3), ('panner tikka', 3), ('chicken guntur', 2)]",10,89.028,3441,8,9.72,3.4563
ORD338407,REST1450,CUST04661,COUR3432,-37.8060456,144.9314705,2020-12-07,22:21:05,0,0,Bike,"[('puri sabzi', 1), ('jalebi', 2), ('rasgulla', 2)]",20,67.016,2738,14,7.71,4.1284
ORD044278,REST1781,CUST13757,COUR2666,-37.8152875,144.9522542,2020-01-26,14:46:09,0,1,Motorbike,"[('chicken burger', 2), ('beef burger', 2)]",40,24.948,1445,3,8.27,4.1662
ORD324948,REST1858,CUST07663,COUR3764,-37.8135309,144.9408347,2020-11-11,12:07:54,1,0,Bike,"[('beef fry', 3), ('crab toast', 1)]",40,22.686,4582,23,7.06,6.7751
ORD264592,REST1801,CUST06284,COUR3732,-37.8072192,144.9570557,2020-09-30,19:23:04,1,0,Car,"[('chicken guntur', 2), ('hyderabadi biryani', 1)]",10,24.03,1553,4,9.72,4.2985
ORD309978,REST1781,CUST09652,COUR0829,-37.8016696,145.0035507,2020-01-27,17:44:10,0,0,Bike,"[('peri peri chicken wings', 2), ('veggie pizza', 3)]",40,38.346,4589,23,8.27,5.2075
ORD177350,REST1801,CUST04588,COUR3376,-37.8140547,144.9481931,2020-04-21,16:25:03,0,0,Motorbike,"[('chicken boneless biryani', 1), ('crispy chicken', 2), ('naan', 3)]",40,52.044,3347,7,9.72,3.2989
ORD312397,REST0936,CUST06732,COUR2273,-37.8078831,144.9731871,2020-10-28,11:36:15,0,0,Motorbike,"[('saffron pilaf', 3), ('banana chips', 3)]",45,70.719,3872,8,9.58,3.4093
ORD085860,REST1450,CUST08336,COUR1998,-37.8130859,144.9519527,2020-04-01,20:14:30,0,0,Motorbike,"[('kachori', 2), ('poha', 2), ('samosa', 3), ('puri sabzi', 1)]",45,50.105,792,2,7.71,2.5489
ORD161198,REST1450,CUST05594,COUR3213,-37.8152039,144.9364924,2020-01-22,04:32:58,0,0,Bike,"[('puri sabzi', 2), ('rasgulla', 1), ('poha', 1)]",20,55.8,2145,11,7.71,3.7313
ORD057542,REST0936,CUST05303,COUR3170,-37.8188066,144.9703017,2020-07-14,01:50:46,0,0,Bike,"[('paratha', 3), ('saffron pilaf', 1), ('cheesecake', 3), ('tender coconut ice cream', 1)]",10,98.775,4247,21,9.58,5.2085
ORD011571,REST0936,CUST10598,COUR1702,-37.8062956,144.9318859,2020-01-18,19:54:43,1,1,Motorbike,"[('begun pora', 3), ('cheesecake', 1), ('tender coconut ice cream', 2)]",20,100.68,53,0,9.58,5.153
ORD154713,REST1858,CUST00320,COUR1035,-37.8015853,144.9484374,2020-12-22,03:01:58,0,0,Bike,"[('beef fry', 2), ('roast beef', 3)]",40,51.096,4483,22,7.06,5.1322
ORD174238,REST1858,CUST01657,COUR2619,-37.8166864,145.0134205,2020-08-29,03:01:58,0,1,Car,"[('appam', 2), ('crab toast', 1)]",0,45.41,3192,8,7.06,4.3901
ORD254518,REST0936,CUST10392,COUR0853,-37.8194384,144.9747984,2020-05-22,17:36:15,0,0,Motorbike,"[('saffron pilaf', 1), ('begun pora', 3)]",0,97.24,4819,10,9.58,3.6874
ORD290286,REST1781,CUST10415,COUR4458,-37.8079235,144.9704362,2020-03-05,08:54:03,0,0,Motorbike,"[('burgers', 1), ('peri peri chicken wings', 1), ('mango salad', 3), ('veggie pizza', 2)]",0,111.23,1344,3,8.27,3.0851
ORD255275,REST1801,CUST01857,COUR1627,-37.8244094,145.0086985,2020-07-05,14:42:11,0,1,Car,"[('tandoori chicken', 1), ('chicken boneless biryani', 1)]",45,22.88,6079,15,9.72,5.3019
ORD124415,REST1781,CUST01080,COUR0224,-37.8151473,145.0143033,2020-03-09,17:20:26,0,0,Car,"[('coffee', 1), ('chicken burger', 1)]",40,20.886,5360,13,8.27,4.0423
ORD170532,REST1450,CUST00924,COUR3405,-37.8114081,144.9613741,2020-02-23,21:05:56,0,1,Car,"[('poha', 3), ('jalebi', 3), ('puri sabzi', 2), ('rasgulla', 1)]",0,116.64,1353,3,7.71,4.0715
ORD128129,REST1450,CUST04505,COUR1347,-37.8265624,144.9743124,2020-10-29,22:36:55,0,0,Car,"[('poha', 1), ('jalebi', 2)]",0,28.48,2459,6,7.71,3.6223
ORD153502,REST1781,CUST02294,COUR3768,-37.8176644,144.9705281,2020-10-13,06:11:52,0,0,Bike,"[('mango salad', 3), ('chicken burger', 2), ('veggie pizza', 3), ('coffee', 3)]",10,170.172,1083,5,8.27,3.0014
ORD120302,REST1801,CUST07787,COUR4531,-37.7996936,144.9717499,2020-10-19,02:02:38,0,0,Motorbike,"[('chicken guntur', 1), ('crispy chicken', 1), ('naan', 1)]",40,21.084,1161,2,9.72,3.0029
ORD105010,REST0936,CUST01079,COUR3788,-37.8157795,145.0142112,2020-03-12,23:44:10,0,0,Bike,"[('begun pora', 3), ('saffron pilaf', 2)]",0,120.8,8500,42,9.58,6.635
ORD292635,REST0936,CUST07900,COUR0416,-37.8169311,144.9881284,2020-07-23,15:09:53,0,0,Bike,"[('cheesecake', 3), ('saffron pilaf', 1), ('paratha', 1), ('banana chips', 3)]",40,77.238,5776,29,9.58,5.7195
ORD051523,REST1858,CUST12383,COUR2396,-37.8065136,144.9440952,2020-03-17,14:46:09,0,0,Bike,"[('roast beef', 3), ('fish', 2)]",0,97.58,4662,23,7.06,5.3122
ORD340060,REST0936,CUST01253,COUR3277,-37.7999324,144.9793617,2020-06-22,05:44:10,0,0,Car,"[('banana chips', 2), ('mocha chingri', 3), ('paratha', 3), ('saffron pilaf', 3)]",10,176.193,4999,12,9.58,3.9136
ORD015518,REST1781,CUST05020,COUR0203,-37.8096284,144.9725683,2020-11-11,11:20:26,0,0,Bike,"[('peri peri chicken wings', 1), ('chicken burger', 2)]",0,42.01,1165,6,8.27,3.6232
ORD014262,REST1858,CUST07405,COUR1438,-37.8240762,144.9685291,2020-04-07,03:01:58,0,0,Bike,"[('beef fry', 3), ('roast beef', 1)]",0,53.4,1718,9,7.06,3.9348
ORD105103,REST1781,CUST12867,COUR4120,-37.8117265,144.9297369,2020-02-18,21:33:37,0,0,Motorbike,"[('chicken burger', 1), ('beef burger', 1)]",40,12.474,4555,9,8.27,3.6242
ORD247707,REST1801,CUST08293,COUR0719,-37.8211434,144.9548976,2020-07-01,04:01:19,0,0,Bike,"[('tandoori chicken', 2), ('chicken boneless biryani', 2)]",40,49.92,2995,15,9.72,4.111
ORD324217,REST1450,CUST12838,COUR2511,-37.8000624,144.935244,2020-04-06,18:39:33,1,0,Car,"[('puri sabzi', 1), ('jalebi', 2), ('rasgulla', 1), ('samosa', 2)]",0,87.4,5574,13,7.71,5.774
ORD201265,REST1450,CUST03716,COUR4583,-37.80023,145.0137188,2020-01-05,07:54:43,0,1,Bike,"[('rasgulla', 1), ('kachori', 3), ('puri sabzi', 2), ('samosa', 2)]",10,100.323,6483,32,7.71,7.4645
ORD173552,REST1781,CUST10321,COUR4371,-37.8045496,144.969735,2020-07-03,11:36:15,0,0,Motorbike,"[('beef burger', 2), ('chicken burger', 2), ('coffee', 1)]",0,64.47,1490,3,8.27,2.813
ORD123006,REST1858,CUST03769,COUR4952,-37.8214542,144.9473652,2020-11-09,09:09:53,0,0,Bike,"[('appam', 2), ('mackerel fry', 2), ('crab toast', 3), ('kerala parotta', 2)]",0,109.05,3638,18,7.06,5.1423
ORD286430,REST1450,CUST03206,COUR1535,-37.8090616,144.9289401,2020-07-08,20:10:32,0,0,Motorbike,"[('puri sabzi', 3), ('samosa', 3), ('rasgulla', 3)]",45,89.876,2847,6,7.71,3.5963
ORD099980,REST0936,CUST03538,COUR4522,-37.82198,145.0027637,2020-08-16,15:57:21,0,1,Bike,"[('saffron pilaf', 2), ('begun pora', 3), ('tender coconut ice cream', 2), ('cheesecake', 2)]",20,148.432,7243,36,9.58,6.8696
ORD146322,REST1450,CUST00472,COUR4280,-37.8175106,144.9487589,2020-08-30,16:13:11,0,1,Motorbike,"[('kachori', 2), ('puri sabzi', 1), ('samosa', 3), ('rasgulla', 1)]",10,86.733,736,1,7.71,4.0173
ORD078550,REST0936,CUST07450,COUR3170,-37.8198468,144.9670168,2020-02-02,18:35:36,1,1,Bike,"[('mocha chingri', 3), ('begun pora', 3), ('banana chips', 2)]",0,170.09,4069,20,9.58,6.8449
ORD047594,REST1450,CUST10474,COUR0521,-37.8237139,144.9971719,2020-04-18,11:20:26,0,1,Motorbike,"[('jalebi', 3), ('rasgulla', 3)]",0,96.06,4180,8,7.71,4.766
ORD076707,REST1450,CUST06151,COUR0289,-37.8073498,144.9569726,2020-06-01,00:19:46,0,0,Car,"[('jalebi', 2), ('rasgulla', 3), ('samosa', 1), ('poha', 1)]",0,107.12,1596,4,7.71,3.038
ORD346571,REST1858,CUST07921,COUR3003,-37.8153663,144.9746393,2020-04-05,20:34:17,0,1,Bike,"[('beef fry', 3), ('mackerel fry', 2), ('appam', 3), ('fish', 2)]",0,150.32,1280,6,7.06,4.3336
ORD134543,REST1781,CUST09779,COUR0634,-37.8121107,144.9886884,2020-05-07,16:01:19,0,0,Car,"[('coffee', 3), ('veggie pizza', 2)]",10,78.345,2545,6,8.27,3.2892
ORD223700,REST0936,CUST11509,COUR4522,-37.803761,144.9320717,2020-03-21,12:11:52,1,1,Bike,"[('begun pora', 1), ('mocha chingri', 1), ('saffron pilaf', 3), ('paratha', 1)]",45,68.238,985,5,9.58,5.4924
ORD231376,REST1858,CUST08058,COUR2587,-37.8198437,145.0116726,2020-08-17,18:23:44,1,0,Motorbike,"[('fish', 1), ('roast beef', 3), ('mackerel fry', 3), ('kerala parotta', 3)]",0,159.16,2763,6,7.06,5.0173
ORD292912,REST0936,CUST01796,COUR1803,-37.7991026,144.9633821,2020-04-28,18:35:36,1,0,Motorbike,"[('mocha chingri', 2), ('cheesecake', 3), ('paratha', 1)]",40,51.486,3547,7,9.58,4.5784
ORD207789,REST1801,CUST00873,COUR1878,-37.8138038,144.9531119,2020-06-27,19:19:07,1,1,Motorbike,"[('hyderabadi biryani', 1), ('panner tikka', 2)]",20,15.968,2071,4,9.72,5.4043
ORD308208,REST1858,CUST07405,COUR3984,-37.8240762,144.9685291,2020-08-07,10:05:16,0,0,Bike,"[('appam', 2), ('mackerel fry', 3), ('fish', 2)]",45,60.836,1718,9,7.06,4.2505
ORD133436,REST1801,CUST07334,COUR3943,-37.8199428,144.9686547,2020-12-12,14:50:06,0,1,Car,"[('hyderabadi biryani', 3), ('chicken boneless biryani', 1)]",10,41.058,2612,6,9.72,3.7264
ORD049884,REST1801,CUST10882,COUR1990,-37.8061582,144.9516719,2020-07-26,13:19:07,1,1,Car,"[('hyderabadi biryani', 1), ('chicken boneless biryani', 1), ('chicken guntur', 3), ('crispy chicken', 3)]",0,97.3,1416,3,9.72,5.3832
ORD283053,REST0936,CUST07472,COUR3468,-37.803969,145.010975,2020-04-14,05:40:13,0,0,Motorbike,"[('banana chips', 3), ('cheesecake', 2)]",0,83.04,7842,16,9.58,4.4958
