order_id,restaurant_id,customer_id,carrier_id,customer_lat,customer_lon,date,time,is_peak_time,is_weekend,carrier_vehicle,shopping_cart,coupon_discount,order_price,shortest_distance_to_customer,travel_time_minutes,delivery_charges
ORD193789,REST1858,CUST06387,COUR4937,-37.8163872,144.94596950000005,2020-05-05,11:32:18,0,0,Car,"[('kerala parotta', 2), ('appam', 1), ('beef fry', 1)]",0,58.28,4041,10,3.8921
ORD252840,REST1858,CUST05819,COUR0177,-37.8127158,144.98161069999995,2020-04-19,19:15:09,1,1,Car,"[('mackerel fry', 1), ('beef fry', 3), ('appam', 1), ('kerala parotta', 1)]",0,78.21,1183,3,5.6392
ORD029373,REST0936,CUST00507,COUR2343,-37.802308,144.9301719,2020-01-20,11:04:36,0,0,Car,"[('begun pora', 3), ('banana chips', 1), ('tender coconut ice cream', 1)]",0,112.78,1340,3,3.033
ORD067078,REST1858,CUST02343,COUR0756,-37.8065438,145.0107074,2020-02-20,17:20:26,0,0,Motorbike,"[('roast beef', 2), ('appam', 3)]",0,102.12,3804,8,3.4953
ORD233746,REST1858,CUST08375,COUR0735,-37.8125999,144.9539031,2020-06-13,18:19:46,1,1,Bike,"[('kerala parotta', 3), ('beef fry', 1), ('mackerel fry', 3), ('crab toast', 2)]",0,100.53,3490,17,6.9749
ORD042595,REST0936,CUST08409,COUR2602,-37.8024412,144.9636936,2020-10-28,12:59:20,1,0,Motorbike,"[('mocha chingri', 2), ('cheesecake', 3), ('saffron pilaf', 2)]",0,123.37,3413,7,4.7203
ORD240054,REST1781,CUST06578,COUR3313,-37.8256873,144.9845548,2020-07-21,18:23:44,1,0,Bike,"[('beef burger', 2), ('coffee', 1), ('pizza', 3)]",45,61.20399999999999,2632,13,5.5482
ORD241025,REST1858,CUST08839,COUR3346,-37.802079,144.9594714,2020-07-17,10:32:58,0,0,Car,"[('mackerel fry', 3), ('roast beef', 1), ('beef fry', 3)]",10,81.351,3602,9,3.9176
ORD033310,REST1450,CUST05134,COUR0193,-37.8243735,144.9472708,2020-02-06,20:30:19,0,0,Car,"[('samosa', 3), ('rasgulla', 2)]",20,65.816,1112,3,2.9372
ORD067305,REST0936,CUST07437,COUR0549,-37.8007919,144.9701024,2020-03-27,16:48:47,0,0,Bike,"[('begun pora', 3), ('tender coconut ice cream', 3), ('banana chips', 3), ('mocha chingri', 2)]",45,126.236,4097,20,4.7548
ORD298161,REST1801,CUST08102,COUR3380,-37.8186125,145.0038022,2020-01-27,03:01:58,0,0,Car,"[('chicken guntur', 3), ('hyderabadi biryani', 3)]",10,46.359,5226,13,4.069
ORD116719,REST1450,CUST12432,COUR4223,-37.8092956,144.9476067,2020-11-29,01:50:46,0,1,Motorbike,"[('kachori', 2), ('puri sabzi', 2)]",20,44.624,1437,3,4.0938
ORD194529,REST1858,CUST04769,COUR2455,-37.805324,144.933267,2020-08-15,12:47:28,1,1,Bike,"[('mackerel fry', 1), ('fish', 3), ('appam', 3)]",0,122.76,5715,29,8.5331
ORD138954,REST1781,CUST07442,COUR0592,-37.8010339,144.9631536,2020-06-19,23:28:21,0,0,Motorbike,"[('pizza', 3), ('chicken burger', 2), ('mango salad', 3), ('veggie pizza', 3)]",45,105.083,1736,3,3.2328
ORD168146,REST0936,CUST01024,COUR2311,-37.8040739,144.9175502,2020-02-23,02:10:32,0,1,Motorbike,"[('begun pora', 2), ('saffron pilaf', 2)]",0,96.24,2171,4,3.82
ORD316470,REST0936,CUST05363,COUR4699,-37.8035324,144.9817888,2020-01-04,23:28:21,0,1,Car,"[('mocha chingri', 2), ('saffron pilaf', 2), ('tender coconut ice cream', 2)]",0,125.26,5063,12,4.7926
ORD274740,REST1801,CUST05772,COUR0610,-37.8114828,144.9441811,2020-04-11,00:00:00,0,1,Bike,"[('hyderabadi biryani', 1), ('naan', 3)]",0,46.1,3586,18,5.4049
ORD158030,REST1450,CUST08161,COUR2027,-37.8188693,145.0023381,2020-07-20,09:53:24,0,0,Motorbike,"[('samosa', 1), ('kachori', 2), ('poha', 3), ('jalebi', 2)]",45,40.848,4460,9,3.8002
ORD158566,REST1858,CUST03182,COUR4526,-37.8092255,144.9315914,2020-12-12,11:56:02,0,1,Motorbike,"[('appam', 3), ('beef fry', 2)]",0,81.08,5475,11,4.7945
ORD138268,REST1781,CUST12556,COUR1764,-37.8188845,144.95275859999995,2020-02-29,02:42:11,0,1,Motorbike,"[('mango salad', 2), ('pizza', 2), ('veggie pizza', 1), ('beef burger', 2)]",10,108.027,1525,3,3.9381
ORD197488,REST1801,CUST05206,COUR2279,-37.82211229999999,144.9536015,2020-05-08,08:34:17,0,0,Car,"[('crispy chicken', 2), ('naan', 1), ('chicken guntur', 1)]",0,47.93,3411,8,3.4327
ORD324647,REST1781,CUST12079,COUR4227,-37.824267600000006,144.99147580000005,2020-01-28,19:42:51,1,0,Bike,"[('veggie pizza', 3), ('mango salad', 1), ('burgers', 1), ('peri peri chicken wings', 2)]",45,50.925,3093,15,5.9415
ORD064943,REST1450,CUST03905,COUR1090,-37.8195201,144.9435127,2020-09-21,05:12:31,0,0,Motorbike,"[('puri sabzi', 1), ('rasgulla', 2), ('jalebi', 1)]",0,73.7,1203,2,3.2118
ORD137990,REST0936,CUST11236,COUR1939,-37.8054305,144.92968969999995,2020-09-21,21:53:24,0,0,Motorbike,"[('paratha', 1), ('begun pora', 1), ('saffron pilaf', 3)]",0,104.8,815,2,2.7938
ORD298315,REST1858,CUST08809,COUR2510,-37.8158343,145.04645,2020-05-05,18:59:20,1,0,Car,"[('kerala parotta', 1), ('mackerel fry', 2)]",0,38.5,6514,16,5.7532
ORD232365,REST0936,CUST03833,COUR1871,-37.8167066,144.98869309999995,2020-02-03,08:02:38,0,0,Car,"[('begun pora', 2), ('paratha', 1)]",40,35.208,5815,14,3.687
ORD093801,REST1858,CUST03875,COUR0680,-37.8223305,144.94699519999998,2020-08-13,01:50:46,0,0,Car,"[('mackerel fry', 2), ('kerala parotta', 2)]",10,47.106,3588,9,3.7781
ORD018130,REST1781,CUST12335,COUR1514,-37.8199091,144.9613446,2020-11-30,09:09:53,0,0,Car,"[('beef burger', 3), ('coffee', 1)]",0,49.5,1128,3,2.93
ORD097275,REST1858,CUST02833,COUR2132,-37.8191893,144.99803469999995,2020-08-18,23:40:13,0,0,Car,"[('fish', 1), ('kerala parotta', 3), ('crab toast', 3)]",45,41.47,1529,4,3.3645
ORD288020,REST1450,CUST02768,COUR2605,-37.8178794,144.99298480000004,2020-10-25,08:10:32,0,1,Bike,"[('samosa', 3), ('kachori', 2)]",45,30.08,3624,18,5.9353
ORD019067,REST1801,CUST07718,COUR2260,-37.7997658,144.9551981,2020-02-16,16:05:16,0,1,Bike,"[('tandoori chicken', 1), ('chicken guntur', 2), ('chicken boneless biryani', 3)]",45,58.333,554,3,3.9427
ORD194947,REST1450,CUST01434,COUR1615,-37.8123656,144.9683329,2020-11-25,04:25:03,0,0,Car,"[('samosa', 2), ('poha', 2), ('jalebi', 1), ('kachori', 2)]",0,68.65,1798,4,3.2766
ORD210414,REST1858,CUST12560,COUR4799,-37.81744060000001,144.9526421,2020-06-05,02:34:17,0,0,Bike,"[('beef fry', 2), ('fish', 1), ('kerala parotta', 3)]",10,71.90100000000001,3330,17,4.6504
ORD045223,REST0936,CUST05323,COUR3107,-37.8109478,144.96318390000005,2020-03-04,15:41:32,0,0,Motorbike,"[('banana chips', 1), ('begun pora', 1), ('mocha chingri', 2)]",0,82.4,3341,7,3.6534
ORD001073,REST1781,CUST04424,COUR2778,-37.819481,144.9323996,2020-10-21,11:28:21,0,0,Car,"[('peri peri chicken wings', 2), ('coffee', 2)]",0,82.12,4429,11,3.7029
ORD183257,REST1781,CUST11140,COUR3468,-37.8074349,144.9447892,2020-11-25,20:46:09,0,0,Motorbike,"[('beef burger', 3), ('mango salad', 2)]",10,65.34899999999999,2617,5,2.9413
ORD277989,REST1801,CUST13078,COUR4919,-37.82350039999999,144.96901530000005,2020-04-08,17:28:21,0,0,Motorbike,"[('hyderabadi biryani', 2), ('chicken guntur', 1), ('chicken boneless biryani', 2), ('panner tikka', 3)]",0,88.69,3078,6,3.2787
ORD196837,REST1781,CUST05864,COUR3582,-37.8081494,144.9426014,2020-08-21,11:24:23,0,0,Car,"[('peri peri chicken wings', 1), ('coffee', 1), ('mango salad', 2), ('pizza', 3)]",20,126.168,2822,7,3.5893
ORD078369,REST1858,CUST02757,COUR2491,-37.8101386,145.0007316,2020-01-10,04:36:55,0,0,Bike,"[('kerala parotta', 1), ('crab toast', 2), ('beef fry', 1), ('appam', 2)]",0,75.62,2523,13,4.1777
ORD311288,REST0936,CUST08798,COUR1759,-37.7938788,144.9851776,2020-12-28,00:23:44,0,0,Car,"[('paratha', 3), ('cheesecake', 1)]",10,37.125,6231,15,4.2598
ORD137611,REST1801,CUST08355,COUR3074,-37.8149348,144.9528434,2020-09-23,14:10:32,0,0,Car,"[('chicken boneless biryani', 3), ('chicken guntur', 2), ('naan', 1)]",0,99.98,2247,5,3.272
ORD050695,REST1858,CUST08001,COUR0867,-37.8194585,145.0072939,2020-10-14,12:43:30,1,0,Motorbike,"[('beef fry', 3), ('roast beef', 2)]",0,74.64,2361,5,4.7211
ORD114598,REST1858,CUST12412,COUR4566,-37.8088022,144.9485653,2020-12-22,01:11:12,0,0,Bike,"[('roast beef', 3), ('fish', 3), ('crab toast', 2)]",0,125.81,4300,22,5.0295
ORD035715,REST1858,CUST07983,COUR3669,-37.8233696,144.9847968,2020-09-10,01:19:07,0,0,Bike,"[('appam', 1), ('kerala parotta', 1), ('beef fry', 1)]",0,44.44,326,2,3.0277
ORD183746,REST1450,CUST05826,COUR0907,-37.8102123,144.9807122,2020-04-08,17:28:21,0,0,Motorbike,"[('puri sabzi', 3), ('kachori', 3), ('rasgulla', 1), ('poha', 3)]",0,130.64,2688,5,3.1838
ORD107707,REST1450,CUST08794,COUR4091,-37.7998526,144.96278610000005,2020-05-11,11:08:34,0,0,Car,"[('rasgulla', 1), ('jalebi', 1), ('puri sabzi', 1), ('kachori', 1)]",40,35.946,2761,7,3.5743
ORD061242,REST1801,CUST08003,COUR1621,-37.8196578,145.0098988,2020-07-06,03:01:58,0,0,Motorbike,"[('tandoori chicken', 1), ('panner tikka', 3), ('chicken boneless biryani', 2), ('hyderabadi biryani', 2)]",45,53.933,5736,11,3.5524
ORD085749,REST1450,CUST09919,COUR4427,-37.8001964,144.93381340000005,2020-05-27,01:27:01,0,0,Bike,"[('samosa', 1), ('jalebi', 1)]",0,22.86,5687,28,5.4663
ORD230793,REST1781,CUST03080,COUR0574,-37.801495,144.9675869,2020-10-04,19:38:54,1,1,Motorbike,"[('peri peri chicken wings', 3), ('beef burger', 1), ('chicken burger', 3), ('veggie pizza', 3)]",10,114.039,1758,4,5.5912
ORD275358,REST1858,CUST06506,COUR4284,-37.8250019,144.9827671,2020-08-03,15:37:34,0,0,Car,"[('roast beef', 3), ('kerala parotta', 1), ('mackerel fry', 3)]",20,91.64,763,2,3.0634
ORD040770,REST1858,CUST10981,COUR0455,-37.8079125,144.9614453,2020-07-02,18:51:25,1,0,Bike,"[('crab toast', 2), ('kerala parotta', 1)]",45,13.827,3017,15,5.7392
ORD204792,REST0936,CUST02316,COUR2241,-37.82255,144.9545468,2020-08-28,05:04:36,0,0,Motorbike,"[('paratha', 2), ('saffron pilaf', 2)]",45,36.432,3081,6,2.9608
ORD046398,REST1450,CUST13678,COUR1588,-37.8194415,144.9541739,2020-03-24,05:12:31,0,0,Motorbike,"[('jalebi', 2), ('kachori', 3), ('puri sabzi', 1), ('rasgulla', 2)]",0,108.25,120,0,2.7839
ORD339973,REST1450,CUST11450,COUR3617,-37.8038884,144.96438369999996,2020-06-29,09:21:45,0,0,Bike,"[('rasgulla', 3), ('jalebi', 1), ('kachori', 1)]",0,84.08,2489,12,3.787
ORD196501,REST1781,CUST00452,COUR0848,-37.8128704,144.9429994,2020-09-15,14:02:38,0,0,Motorbike,"[('peri peri chicken wings', 2), ('pizza', 3), ('coffee', 1), ('veggie pizza', 2)]",0,148.26,2459,5,2.9584
ORD067358,REST1450,CUST01203,COUR4225,-37.8033005,144.9895772,2020-04-30,14:54:03,0,0,Motorbike,"[('poha', 1), ('puri sabzi', 1)]",0,28.07,4174,8,3.9094
ORD206796,REST1858,CUST09409,COUR3689,-37.81414960000001,144.9632052,2020-07-24,04:52:44,0,0,Bike,"[('roast beef', 1), ('appam', 2)]",0,61.0,2407,12,4.0694
ORD160468,REST1801,CUST10198,COUR1647,-37.8208388,144.9694007,2020-12-02,16:52:44,0,0,Bike,"[('chicken guntur', 2), ('chicken boneless biryani', 1), ('naan', 1), ('tandoori chicken', 1)]",10,66.132,2803,14,3.5483
ORD131459,REST1450,CUST03639,COUR0169,-37.8038545,144.966467,2020-10-15,20:30:19,0,0,Bike,"[('samosa', 3), ('jalebi', 3), ('poha', 1)]",20,61.536,2521,13,3.7554
ORD046165,REST0936,CUST06245,COUR3665,-37.8148138,144.9377022,2020-12-09,06:15:49,0,0,Bike,"[('tender coconut ice cream', 2), ('cheesecake', 3), ('mocha chingri', 3), ('banana chips', 1)]",0,154.42,1470,7,3.3333
ORD077389,REST1858,CUST06168,COUR0019,-37.8127606,144.9349737,2020-01-27,14:50:06,0,0,Car,"[('appam', 1), ('roast beef', 3), ('kerala parotta', 2)]",0,111.28,5234,13,4.1496
ORD134839,REST1801,CUST01993,COUR1545,-37.8064769,145.0080747,2020-07-07,14:02:38,0,0,Motorbike,"[('chicken guntur', 1), ('chicken boneless biryani', 1), ('hyderabadi biryani', 2)]",0,47.51,4691,9,3.2213
ORD220984,REST1781,CUST11778,COUR3236,-37.8196679,144.97141090000005,2020-06-22,06:15:49,0,0,Motorbike,"[('beef burger', 2), ('coffee', 1), ('chicken burger', 3), ('mango salad', 1)]",10,89.45100000000001,1252,3,3.2005
ORD343782,REST0936,CUST05911,COUR2671,-37.82072700000001,144.9670761,2020-10-17,22:52:44,0,1,Motorbike,"[('tender coconut ice cream', 1), ('paratha', 3), ('saffron pilaf', 1)]",20,57.632,4212,8,4.1218
ORD277371,REST1781,CUST11907,COUR1839,-37.801224,144.98386509999995,2020-08-31,02:34:17,0,0,Motorbike,"[('mango salad', 3), ('chicken burger', 1), ('coffee', 3)]",45,82.274,2789,6,3.1824
ORD187472,REST1450,CUST05367,COUR2882,-37.8104014,144.968871,2020-10-07,09:01:58,0,0,Car,"[('jalebi', 1), ('kachori', 3), ('puri sabzi', 1), ('samosa', 3)]",40,55.59,1886,5,3.6682
ORD289605,REST1450,CUST02025,COUR0937,-37.8019411,144.94870680000002,2020-07-20,02:58:01,0,0,Bike,"[('samosa', 2), ('puri sabzi', 1)]",45,24.921,2223,11,3.9526
ORD333857,REST1781,CUST05404,COUR1164,-37.815342,144.9661842,2020-07-17,23:40:13,0,0,Car,"[('burgers', 1), ('beef burger', 1), ('mango salad', 1), ('pizza', 1)]",10,54.99,426,1,2.7528
ORD057214,REST1450,CUST08969,COUR3200,-37.801299,145.0011591,2020-10-07,08:06:35,0,0,Motorbike,"[('samosa', 2), ('kachori', 3)]",40,30.036,5430,11,3.893
ORD159013,REST1450,CUST11951,COUR1333,-37.8024368,144.9800876,2020-12-02,00:59:20,0,0,Bike,"[('samosa', 2), ('puri sabzi', 1)]",0,45.31,3331,17,4.67
ORD242090,REST1858,CUST04298,COUR4917,-37.8238081,144.9883124,2020-11-10,23:24:23,0,0,Car,"[('mackerel fry', 1), ('beef fry', 2)]",20,27.016,526,1,3.0219
ORD100454,REST1858,CUST06815,COUR4075,-37.8012711,144.9741407,2020-10-16,01:46:48,0,0,Car,"[('crab toast', 1), ('fish', 2)]",0,39.51,2851,7,3.6686
ORD105681,REST1450,CUST10354,COUR2309,-37.8219232,144.9968175,2020-06-25,01:30:59,0,0,Motorbike,"[('samosa', 1), ('jalebi', 1)]",0,22.86,4098,8,3.4652
ORD118885,REST1858,CUST03766,COUR4930,-37.8252149,144.95625980000003,2020-01-02,11:48:07,0,0,Motorbike,"[('crab toast', 2), ('fish', 1)]",0,28.23,3858,8,3.3531
ORD024032,REST1858,CUST05896,COUR1633,-37.8002014,144.955207,2020-07-23,10:40:52,0,0,Motorbike,"[('mackerel fry', 1), ('roast beef', 1), ('appam', 2)]",0,73.33,3984,8,3.699
ORD212480,REST1450,CUST01066,COUR0470,-37.82437120000001,145.0159628,2020-07-15,11:28:21,0,0,Car,"[('kachori', 3), ('rasgulla', 1)]",40,27.858,6092,15,4.3308
ORD287752,REST1450,CUST00462,COUR4568,-37.80595170000001,144.9335112,2020-09-24,07:58:40,0,0,Bike,"[('rasgulla', 2), ('jalebi', 3)]",0,74.11,2559,13,3.8648
ORD207812,REST1801,CUST03836,COUR3340,-37.8163143,144.9893275,2020-06-28,23:32:18,0,1,Car,"[('tandoori chicken', 1), ('crispy chicken', 3), ('chicken guntur', 1)]",0,66.8,3946,9,4.3737
ORD247302,REST1450,CUST10458,COUR3782,-37.7989308,144.9592816,2020-03-21,09:13:50,0,1,Bike,"[('poha', 2), ('kachori', 3)]",40,24.696,2719,14,5.4286
ORD219330,REST0936,CUST00399,COUR0361,-37.8207735,144.98511100000005,2020-07-28,12:15:49,1,0,Car,"[('begun pora', 2), ('tender coconut ice cream', 3), ('mocha chingri', 3)]",40,99.798,5747,14,5.3321
ORD220232,REST1858,CUST12371,COUR1465,-37.8064259,144.9439917,2020-03-30,16:56:42,0,0,Bike,"[('appam', 3), ('fish', 1), ('mackerel fry', 2)]",10,91.107,4864,24,5.2918
ORD091085,REST0936,CUST09060,COUR1815,-37.8068444,144.9401436,2020-09-21,03:01:58,0,0,Car,"[('begun pora', 2), ('tender coconut ice cream', 2), ('saffron pilaf', 3)]",20,127.52,1218,3,2.967
ORD231908,REST1450,CUST05524,COUR0502,-37.8189555,144.9618262,2020-10-11,23:36:15,0,1,Car,"[('poha', 1), ('kachori', 1)]",0,16.5,782,2,3.9276
ORD172077,REST0936,CUST07119,COUR0034,-37.8226366,145.01407450000005,2020-08-08,12:19:46,1,1,Car,"[('banana chips', 2), ('tender coconut ice cream', 1), ('mocha chingri', 2)]",10,87.24600000000001,8408,20,6.9604
ORD154936,REST1801,CUST05847,COUR1401,-37.8106148,144.9830645,2020-05-09,15:33:37,0,1,Car,"[('hyderabadi biryani', 2), ('chicken boneless biryani', 1), ('chicken guntur', 3), ('panner tikka', 2)]",0,78.89,2887,7,4.0396
ORD149117,REST1450,CUST12078,COUR3889,-37.8171949,144.9645119,2020-03-23,04:09:13,0,0,Motorbike,"[('kachori', 2), ('samosa', 1)]",40,17.465999999999998,974,2,2.9106
ORD330005,REST1858,CUST00246,COUR2481,-37.8246572,144.94309040000005,2020-11-16,02:22:25,0,0,Bike,"[('fish', 1), ('roast beef', 1), ('crab toast', 2), ('appam', 2)]",0,89.23,4100,20,4.8386
ORD175049,REST1450,CUST04992,COUR4265,-37.8126451,144.9738257,2020-10-15,04:17:08,0,0,Motorbike,"[('rasgulla', 2), ('samosa', 1)]",0,56.69,1873,4,3.1717
ORD006173,REST1858,CUST01232,COUR2451,-37.8013589,144.986982,2020-06-11,11:44:10,0,0,Motorbike,"[('beef fry', 1), ('mackerel fry', 3), ('roast beef', 1)]",40,41.37,2437,5,3.4134
ORD174655,REST1450,CUST07809,COUR4481,-37.8108985,144.9966202,2020-04-17,01:19:07,0,0,Motorbike,"[('puri sabzi', 1), ('samosa', 2)]",45,24.921,4154,8,3.4042
ORD027507,REST1781,CUST08420,COUR3767,-37.8032365,144.9634257,2020-04-05,06:00:00,0,1,Bike,"[('veggie pizza', 3), ('mango salad', 2), ('peri peri chicken wings', 2)]",40,65.946,1372,7,4.4622
ORD114679,REST1781,CUST10590,COUR2384,-37.8067703,144.9323875,2020-11-30,14:46:09,0,0,Motorbike,"[('mango salad', 1), ('chicken burger', 3), ('beef burger', 3)]",0,85.37,3613,7,3.4463
ORD278870,REST1801,CUST06494,COUR4081,-37.82560150000001,144.98284630000003,2020-02-06,13:54:43,1,0,Car,"[('chicken boneless biryani', 2), ('hyderabadi biryani', 1), ('tandoori chicken', 3)]",20,87.792,4168,10,5.1202
ORD290322,REST1781,CUST13376,COUR1426,-37.80181470000001,144.9572168,2020-01-22,17:48:07,0,0,Bike,"[('chicken burger', 3), ('mango salad', 3), ('burgers', 3), ('coffee', 2)]",0,167.58,1790,9,3.7548
ORD147209,REST1858,CUST09536,COUR4317,-37.81869920000001,144.95547140000005,2020-04-22,01:23:04,0,0,Car,"[('kerala parotta', 2), ('crab toast', 2), ('roast beef', 3)]",40,61.62,2935,7,3.2415
ORD063504,REST1781,CUST05752,COUR1268,-37.8183661,144.9663553,2020-09-05,04:32:58,0,1,Bike,"[('mango salad', 2), ('coffee', 2)]",10,82.602,716,4,4.0524
ORD212653,REST0936,CUST06613,COUR2881,-37.8245586,144.984718,2020-11-27,22:52:44,0,0,Motorbike,"[('banana chips', 2), ('saffron pilaf', 1), ('tender coconut ice cream', 2)]",0,101.76,5784,12,3.9383
ORD028393,REST1781,CUST03556,COUR3417,-37.8124411,145.0033831,2020-12-14,03:09:53,0,0,Car,"[('veggie pizza', 3), ('mango salad', 2), ('burgers', 1), ('pizza', 2)]",20,101.08,3918,9,3.1228
ORD020189,REST1450,CUST03970,COUR2240,-37.8102905,144.9394264,2020-04-24,16:25:03,0,0,Car,"[('rasgulla', 1), ('kachori', 2), ('poha', 3)]",45,34.81,1932,5,3.6329
ORD031306,REST1450,CUST10499,COUR3565,-37.806973,145.00557849999996,2020-09-24,21:17:48,0,0,Motorbike,"[('poha', 1), ('kachori', 3)]",0,32.82,5526,11,3.6851
ORD077713,REST1801,CUST03269,COUR3957,-37.8077584,144.9436271,2020-07-15,22:29:00,0,0,Motorbike,"[('hyderabadi biryani', 3), ('crispy chicken', 3), ('chicken guntur', 2)]",40,48.21,2246,4,2.9883
ORD107523,REST1450,CUST01092,COUR2961,-37.81068120000001,145.0122031,2020-12-28,18:47:28,1,0,Car,"[('jalebi', 3), ('rasgulla', 2)]",0,74.11,5994,14,5.6726
ORD028940,REST1858,CUST04912,COUR1894,-37.80469650000001,144.9985598,2020-08-18,12:15:49,1,0,Car,"[('mackerel fry', 1), ('fish', 3), ('roast beef', 3)]",0,126.84,2865,7,5.0496
ORD012812,REST1781,CUST08527,COUR1975,-37.8159777,144.93830060000005,2020-11-03,03:05:56,0,0,Motorbike,"[('coffee', 2), ('chicken burger', 3), ('veggie pizza', 1), ('burgers', 3)]",0,107.77,2974,6,3.0835
ORD304684,REST1781,CUST06693,COUR3866,-37.8074687,144.9708683,2020-10-06,04:13:11,0,0,Motorbike,"[('beef burger', 3), ('chicken burger', 3), ('burgers', 1)]",0,68.05,1272,3,2.8337
ORD019513,REST1450,CUST06554,COUR1250,-37.8246603,144.9846885,2020-03-06,21:57:21,0,0,Motorbike,"[('rasgulla', 3), ('jalebi', 2)]",45,47.294,3159,6,3.5071
ORD227541,REST1781,CUST04838,COUR4436,-37.8090287,144.9426335,2020-10-28,10:25:03,0,0,Bike,"[('mango salad', 2), ('beef burger', 2), ('peri peri chicken wings', 3)]",0,118.25,2587,13,4.042
ORD186417,REST0936,CUST12400,COUR3020,-37.8097389,144.9463419,2020-12-31,17:16:29,0,0,Motorbike,"[('cheesecake', 2), ('begun pora', 2), ('paratha', 1)]",0,83.82,1700,3,2.636
ORD058801,REST0936,CUST00628,COUR1342,-37.7974545,144.926022,2020-02-01,21:09:53,0,1,Motorbike,"[('mocha chingri', 1), ('begun pora', 2)]",0,68.39,2085,4,3.6181
ORD021385,REST0936,CUST12518,COUR4742,-37.8187574,144.953426,2020-09-11,11:48:07,0,0,Bike,"[('mocha chingri', 2), ('paratha', 1), ('tender coconut ice cream', 3), ('cheesecake', 1)]",45,66.038,2582,13,3.9409
ORD168825,REST1858,CUST05066,COUR1555,-37.8200867,144.9584,2020-06-03,19:07:15,1,0,Motorbike,"[('roast beef', 3), ('appam', 3)]",0,123.36,2518,5,5.1442
ORD043995,REST0936,CUST04376,COUR1338,-37.8174787,144.9704325,2020-07-11,16:29:00,0,1,Car,"[('banana chips', 2), ('tender coconut ice cream', 3), ('mocha chingri', 3), ('begun pora', 3)]",0,229.49,4173,10,4.3123
ORD275453,REST1450,CUST06264,COUR2013,-37.8066513,144.95702849999995,2020-07-31,17:48:07,0,0,Motorbike,"[('puri sabzi', 2), ('jalebi', 3), ('kachori', 3)]",45,51.783,1828,4,3.653
ORD232932,REST1450,CUST00467,COUR2129,-37.8020289,144.9565354,2020-05-18,15:33:37,0,0,Motorbike,"[('samosa', 2), ('rasgulla', 3)]",0,91.43,2116,4,3.1152
ORD315939,REST1781,CUST03144,COUR2101,-37.8155255,144.9878219,2020-08-19,23:52:05,0,0,Car,"[('mango salad', 3), ('beef burger', 3), ('veggie pizza', 3)]",0,123.18,2462,6,3.6005
ORD070001,REST1450,CUST01105,COUR3349,-37.8104815,145.015893,2020-07-08,10:40:52,0,0,Car,"[('puri sabzi', 2), ('rasgulla', 2), ('samosa', 2)]",0,108.94,6367,15,4.2898
ORD182613,REST1781,CUST00204,COUR1483,-37.803274,144.9556341,2020-05-13,02:02:38,0,0,Bike,"[('pizza', 3), ('burgers', 3)]",10,78.921,1797,9,4.0642
ORD173614,REST0936,CUST13171,COUR1130,-37.808675,144.9423368,2020-02-16,17:40:13,0,1,Motorbike,"[('begun pora', 3), ('cheesecake', 1), ('tender coconut ice cream', 3), ('paratha', 1)]",0,155.21,992,2,3.7028
ORD063767,REST1450,CUST02623,COUR2632,-37.8070061,144.95501519999996,2020-02-09,04:17:08,0,1,Motorbike,"[('rasgulla', 1), ('puri sabzi', 2), ('poha', 2)]",45,42.95,1555,3,4.1499
ORD015983,REST1858,CUST07353,COUR3489,-37.8233693,144.97006519999996,2020-11-15,15:09:53,0,1,Motorbike,"[('fish', 1), ('mackerel fry', 2), ('roast beef', 1)]",0,62.83,1552,3,3.9622
ORD048037,REST1858,CUST01572,COUR3468,-37.8218104,144.9925744,2020-03-28,11:36:15,0,1,Motorbike,"[('roast beef', 3), ('beef fry', 1), ('appam', 1), ('kerala parotta', 3)]",0,135.84,858,2,3.9181
ORD233537,REST1801,CUST03966,COUR0405,-37.8041339,144.9564001,2020-09-10,20:58:01,0,0,Bike,"[('hyderabadi biryani', 2), ('chicken boneless biryani', 1), ('tandoori chicken', 2), ('panner tikka', 1)]",20,65.55199999999999,854,4,3.0137
ORD154612,REST1450,CUST13940,COUR4199,-37.8096588,144.9640636,2020-03-28,15:57:21,0,1,Car,"[('poha', 3), ('kachori', 1)]",45,18.249,1736,4,4.261
ORD222907,REST1450,CUST12419,COUR3929,-37.8093704,144.9484582,2020-04-13,06:55:23,0,0,Car,"[('samosa', 3), ('puri sabzi', 3), ('jalebi', 3)]",10,114.993,1336,3,3.1163
ORD006196,REST1450,CUST00040,COUR1089,-37.8121781,144.94445380000005,2020-05-29,14:34:17,0,0,Car,"[('puri sabzi', 2), ('poha', 2), ('kachori', 3), ('jalebi', 1)]",10,81.62100000000001,1386,3,3.1776
ORD123537,REST1801,CUST05885,COUR2695,-37.8194684,144.96374680000002,2020-07-06,12:43:30,1,0,Motorbike,"[('crispy chicken', 1), ('hyderabadi biryani', 2), ('chicken boneless biryani', 3), ('panner tikka', 3)]",0,114.65,2591,5,4.5114
ORD103955,REST1781,CUST00589,COUR1390,-37.8136243,144.94105580000004,2020-09-02,03:33:37,0,0,Bike,"[('chicken burger', 3), ('peri peri chicken wings', 1)]",40,32.358000000000004,2652,13,3.7825
ORD074923,REST1450,CUST12777,COUR4146,-37.8152518,144.9663639,2020-03-06,03:13:50,0,0,Bike,"[('jalebi', 2), ('puri sabzi', 1), ('samosa', 3), ('kachori', 2)]",20,75.648,1150,6,3.235
ORD022002,REST1781,CUST10020,COUR4161,-37.809587,145.0021112,2020-06-24,04:48:47,0,0,Bike,"[('burgers', 3), ('pizza', 3)]",0,87.69,3877,19,4.5322
ORD214214,REST0936,CUST01133,COUR1044,-37.8054295,145.00462919999995,2020-04-04,03:45:29,0,1,Car,"[('banana chips', 3), ('tender coconut ice cream', 2)]",10,87.75,7033,17,5.2081
ORD153759,REST0936,CUST05890,COUR2456,-37.8001129,144.95536040000005,2020-05-03,11:12:31,0,1,Car,"[('paratha', 3), ('cheesecake', 3), ('banana chips', 1), ('begun pora', 2)]",45,74.146,2729,7,4.2792
ORD137629,REST1781,CUST06359,COUR1768,-37.806456,144.95927340000003,2020-04-20,17:20:26,0,0,Motorbike,"[('burgers', 1), ('mango salad', 2), ('veggie pizza', 1)]",0,60.87,1251,3,3.0698
ORD014646,REST1781,CUST04635,COUR4789,-37.8039338,144.9382392,2020-03-23,02:06:35,0,0,Motorbike,"[('peri peri chicken wings', 2), ('pizza', 1)]",0,59.89,3278,7,3.3991
ORD002858,REST1801,CUST10842,COUR4078,-37.8111789,144.9990511,2020-12-07,21:21:45,0,0,Bike,"[('hyderabadi biryani', 3), ('chicken guntur', 2)]",10,37.782,4227,21,5.1493
ORD059771,REST1781,CUST02801,COUR1505,-37.81013770000001,144.9965834,2020-10-15,00:35:36,0,0,Bike,"[('beef burger', 2), ('peri peri chicken wings', 3), ('veggie pizza', 1), ('chicken burger', 3)]",10,105.48,3276,16,4.6756
ORD079557,REST1781,CUST01897,COUR2873,-37.8246794,144.9923015,2020-05-24,01:54:43,0,1,Motorbike,"[('beef burger', 1), ('chicken burger', 2), ('veggie pizza', 1), ('mango salad', 3)]",0,110.9,3228,6,4.4865
ORD306373,REST1450,CUST00674,COUR0496,-37.8030418,144.99806,2020-12-08,11:44:10,0,0,Car,"[('samosa', 2), ('jalebi', 2)]",45,25.146,4973,12,3.9752
ORD302843,REST1858,CUST05362,COUR4022,-37.8035819,144.98226780000005,2020-06-24,18:31:38,1,0,Motorbike,"[('roast beef', 3), ('mackerel fry', 1), ('crab toast', 2)]",20,69.88,2346,5,5.255
ORD115784,REST1781,CUST10104,COUR1536,-37.804481,144.9530119,2020-08-15,04:05:16,0,1,Motorbike,"[('beef burger', 3), ('peri peri chicken wings', 3)]",10,73.008,1966,4,4.5221
ORD246913,REST1781,CUST10526,COUR1361,-37.8180818,144.9777076,2020-11-18,07:23:04,0,0,Bike,"[('coffee', 1), ('veggie pizza', 2), ('peri peri chicken wings', 1), ('beef burger', 1)]",40,40.986,3846,19,5.0003
ORD274719,REST1858,CUST01073,COUR0800,-37.8192266,145.01474240000005,2020-09-08,20:14:30,0,0,Motorbike,"[('mackerel fry', 3), ('roast beef', 1)]",0,58.23,3191,6,3.52
ORD208382,REST1858,CUST00312,COUR4468,-37.7999252,144.95364740000005,2020-06-21,20:14:30,0,1,Car,"[('appam', 2), ('mackerel fry', 3), ('beef fry', 2)]",10,88.37100000000001,4159,10,4.7535
ORD118140,REST1781,CUST04192,COUR2589,-37.8260845,144.9845062,2020-03-24,09:29:40,0,0,Car,"[('mango salad', 2), ('beef burger', 1), ('burgers', 2), ('coffee', 1)]",0,89.12,2652,6,3.125
ORD323883,REST1858,CUST00173,COUR2049,-37.7998519,144.993109,2020-12-28,20:46:09,0,0,Car,"[('roast beef', 1), ('beef fry', 3), ('crab toast', 2), ('mackerel fry', 3)]",20,81.352,2842,7,3.7821
ORD338695,REST1781,CUST05910,COUR4992,-37.820764,144.9671687,2020-08-18,00:59:20,0,0,Bike,"[('peri peri chicken wings', 2), ('mango salad', 3), ('pizza', 3), ('veggie pizza', 3)]",20,162.84799999999998,1238,6,3.3486
ORD264643,REST1858,CUST09503,COUR2461,-37.8027946,144.98359519999997,2020-11-22,07:23:04,0,1,Car,"[('crab toast', 3), ('mackerel fry', 2), ('appam', 3), ('kerala parotta', 1)]",45,63.3,2378,6,4.134
ORD255872,REST1450,CUST03752,COUR3203,-37.8148414,144.938077,2020-08-20,17:28:21,0,0,Bike,"[('samosa', 2), ('rasgulla', 3)]",0,91.43,2049,10,3.9642
ORD309695,REST1781,CUST02799,COUR4328,-37.8179689,145.0038909,2020-08-24,19:54:43,1,0,Motorbike,"[('burgers', 2), ('peri peri chicken wings', 3), ('mango salad', 3)]",45,74.179,4015,8,5.0282
ORD149626,REST1450,CUST06698,COUR3091,-37.8073818,144.97287859999997,2020-01-08,03:25:42,0,0,Motorbike,"[('kachori', 2), ('poha', 2), ('jalebi', 1), ('puri sabzi', 1)]",40,37.68,2454,5,3.263
ORD099538,REST1781,CUST09667,COUR2123,-37.8106368,144.9605957,2020-03-01,03:13:50,0,1,Motorbike,"[('burgers', 1), ('peri peri chicken wings', 3), ('chicken burger', 1)]",45,39.661,831,2,4.1431
ORD009310,REST1801,CUST03515,COUR4546,-37.811653,144.9381715,2020-03-17,05:56:02,0,0,Motorbike,"[('chicken boneless biryani', 2), ('panner tikka', 1), ('naan', 1), ('tandoori chicken', 3)]",40,72.648,3497,7,3.0178
ORD269733,REST1801,CUST04891,COUR3253,-37.816191,144.9722489,2020-05-12,06:31:38,0,0,Bike,"[('naan', 3), ('chicken guntur', 1)]",0,47.99,2560,13,3.7441
ORD187556,REST0936,CUST10060,COUR1977,-37.812667,144.94737030000005,2020-01-16,07:11:12,0,0,Motorbike,"[('saffron pilaf', 3), ('paratha', 3), ('mocha chingri', 2)]",40,82.74,1678,3,2.9713
ORD000106,REST1450,CUST03439,COUR1115,-37.8186623,144.9928325,2020-10-24,01:50:46,0,1,Car,"[('samosa', 2), ('kachori', 1)]",20,26.992,3694,9,4.7755
ORD291468,REST1781,CUST06710,COUR1330,-37.8081093,144.973275,2020-09-18,23:40:13,0,0,Bike,"[('beef burger', 3), ('mango salad', 2)]",0,72.61,1272,6,3.5069
ORD121135,REST0936,CUST04953,COUR4292,-37.8121189,144.97387719999998,2020-03-23,12:55:23,1,0,Car,"[('paratha', 3), ('saffron pilaf', 2), ('tender coconut ice cream', 3)]",0,135.2,4331,10,5.1044
ORD115249,REST1781,CUST08957,COUR3818,-37.8028167,144.96650680000005,2020-11-09,10:17:08,0,0,Motorbike,"[('burgers', 3), ('coffee', 1), ('peri peri chicken wings', 1)]",0,58.1,1524,3,3.4618
ORD103002,REST1858,CUST03070,COUR1651,-37.8004833,144.9705365,2020-12-15,00:11:52,0,0,Bike,"[('fish', 2), ('kerala parotta', 1), ('mackerel fry', 1), ('roast beef', 3)]",0,123.75,3088,15,4.4678
ORD241728,REST1781,CUST13869,COUR0028,-37.8155656,144.973465,2020-01-30,08:42:11,0,0,Car,"[('pizza', 3), ('coffee', 1)]",0,93.54,1205,3,3.2675
ORD263100,REST1781,CUST01205,COUR2865,-37.8047422,144.989711,2020-06-17,03:33:37,0,0,Car,"[('mango salad', 1), ('pizza', 3), ('chicken burger', 3)]",0,129.41,3070,7,3.2135
ORD229450,REST1858,CUST08682,COUR1842,-37.8040911,144.96191140000005,2020-09-22,05:56:02,0,0,Motorbike,"[('appam', 2), ('mackerel fry', 1)]",20,41.672,3238,6,3.3433
ORD321110,REST1858,CUST12441,COUR3687,-37.8028881,145.0029594,2020-04-15,06:00:00,0,0,Car,"[('mackerel fry', 1), ('beef fry', 3)]",45,24.47,3369,8,3.8058
ORD015006,REST1858,CUST01192,COUR2323,-37.8077721,144.9941233,2020-11-19,22:25:03,0,0,Bike,"[('crab toast', 3), ('appam', 1), ('beef fry', 1), ('mackerel fry', 2)]",0,72.21,2159,11,3.9429
ORD021171,REST1858,CUST08795,COUR3942,-37.7995959,144.96054109999997,2020-08-21,07:23:04,0,0,Car,"[('beef fry', 2), ('fish', 2), ('kerala parotta', 2)]",0,82.98,3811,9,3.6442
ORD249355,REST0936,CUST12793,COUR4912,-37.8081448,144.9289924,2020-09-22,10:48:47,0,0,Bike,"[('saffron pilaf', 3), ('cheesecake', 1)]",0,83.25,1470,7,3.7014
ORD210916,REST1781,CUST12526,COUR0311,-37.8187411,144.953228,2020-04-17,16:21:05,0,0,Bike,"[('veggie pizza', 2), ('chicken burger', 3), ('beef burger', 2), ('pizza', 3)]",0,142.53,1479,7,3.5264
ORD186503,REST1450,CUST10716,COUR4332,-37.81370870000001,144.9882469,2020-03-24,15:25:42,0,0,Car,"[('puri sabzi', 2), ('poha', 1)]",10,43.02,3274,8,3.9094
ORD019963,REST1801,CUST13935,COUR4720,-37.8075932,144.96293490000005,2020-02-25,15:53:24,0,0,Motorbike,"[('tandoori chicken', 2), ('chicken boneless biryani', 1), ('hyderabadi biryani', 3), ('naan', 1)]",10,86.616,1132,2,3.0567
ORD228256,REST1450,CUST02690,COUR1716,-37.7992088,144.9688243,2020-04-06,06:39:33,0,0,Bike,"[('rasgulla', 3), ('kachori', 2), ('jalebi', 3), ('puri sabzi', 3)]",20,137.256,3146,16,4.5103
ORD169360,REST1858,CUST07962,COUR2630,-37.8134608,144.97395930000005,2020-09-01,22:48:47,0,0,Car,"[('fish', 2), ('appam', 2), ('crab toast', 1), ('kerala parotta', 1)]",20,74.488,1466,4,3.7759
ORD275446,REST1781,CUST13116,COUR0592,-37.8250843,144.94974630000004,2020-11-19,16:56:42,0,0,Motorbike,"[('pizza', 1), ('veggie pizza', 1)]",0,32.74,2479,5,3.1397
ORD020859,REST1781,CUST00324,COUR0462,-37.801354,144.9463284,2020-02-23,16:52:44,0,1,Motorbike,"[('veggie pizza', 2), ('pizza', 3), ('beef burger', 2), ('coffee', 2)]",40,91.53,2766,6,4.3447
ORD344348,REST1450,CUST02335,COUR3438,-37.8005732,144.9748659,2020-07-27,23:28:21,0,0,Motorbike,"[('kachori', 3), ('jalebi', 3)]",0,54.69,3254,7,3.4591
ORD076618,REST1781,CUST07433,COUR2201,-37.8177602,144.9788454,2020-07-22,15:33:37,0,0,Motorbike,"[('chicken burger', 2), ('burgers', 2)]",20,28.16,1869,4,3.5381
ORD294112,REST1858,CUST03980,COUR4092,-37.8239708,144.9438094,2020-05-28,08:10:32,0,0,Car,"[('fish', 1), ('appam', 1)]",45,20.246,4055,10,3.7961
ORD211087,REST1801,CUST10107,COUR4930,-37.8049451,144.9523702,2020-05-26,14:22:25,0,0,Motorbike,"[('crispy chicken', 2), ('chicken guntur', 3)]",0,54.17,1228,2,3.0282
ORD279373,REST1450,CUST02820,COUR0278,-37.8146759,145.00156840000002,2020-12-22,23:00:39,0,0,Motorbike,"[('puri sabzi', 3), ('kachori', 1), ('rasgulla', 1), ('poha', 2)]",45,58.289,4606,9,4.1714
ORD082271,REST1801,CUST08806,COUR4356,-37.80588,144.95599,2020-08-24,07:54:43,0,0,Car,"[('naan', 3), ('chicken boneless biryani', 3), ('crispy chicken', 1)]",40,71.61,1201,3,2.7774
ORD342164,REST1858,CUST05445,COUR0916,-37.814711,144.9635619,2020-08-11,17:24:23,0,0,Bike,"[('fish', 1), ('kerala parotta', 2), ('crab toast', 2), ('appam', 1)]",0,75.79,2325,12,4.1465
ORD058892,REST0936,CUST07555,COUR3244,-37.8147431,144.94479980000003,2020-10-12,04:56:42,0,0,Car,"[('begun pora', 1), ('tender coconut ice cream', 2)]",0,64.16,1722,4,3.0922
ORD128669,REST0936,CUST09774,COUR0140,-37.79988779999999,144.9633868,2020-05-14,21:25:42,0,0,Car,"[('mocha chingri', 1), ('begun pora', 3), ('cheesecake', 3), ('tender coconut ice cream', 1)]",0,150.46,3485,8,3.0623
ORD091265,REST1450,CUST10836,COUR3961,-37.8003161,144.9263344,2020-03-19,07:03:17,0,0,Car,"[('poha', 3), ('samosa', 3), ('rasgulla', 3)]",0,129.24,4894,12,3.9904
ORD113272,REST1781,CUST06494,COUR1785,-37.82560150000001,144.98284630000003,2020-06-29,10:52:44,0,0,Motorbike,"[('chicken burger', 1), ('peri peri chicken wings', 2)]",10,43.434,2610,5,3.1766
ORD118660,REST1858,CUST10932,COUR1574,-37.8032344,144.9669507,2020-02-28,11:20:26,0,0,Bike,"[('appam', 2), ('mackerel fry', 3)]",0,76.75,3039,15,4.4247
ORD232930,REST1781,CUST06275,COUR0504,-37.807157200000006,144.9569305,2020-10-08,16:25:03,0,0,Motorbike,"[('beef burger', 2), ('burgers', 2), ('veggie pizza', 2)]",0,47.48,1520,3,3.4841
ORD069115,REST1781,CUST10220,COUR3281,-37.8049174,144.9934997,2020-09-05,10:25:03,0,1,Motorbike,"[('mango salad', 1), ('beef burger', 2)]",0,40.74,3575,7,4.5005
ORD259006,REST1801,CUST13302,COUR0198,-37.8016092,144.9584589,2020-07-15,07:03:17,0,0,Motorbike,"[('chicken guntur', 2), ('naan', 1), ('hyderabadi biryani', 3)]",45,30.14,422,1,2.7389
ORD027373,REST1781,CUST04963,COUR1242,-37.8121744,144.9739415,2020-09-19,02:58:01,0,1,Car,"[('peri peri chicken wings', 1), ('beef burger', 3), ('chicken burger', 3)]",40,48.324,1108,3,3.8949
ORD055656,REST1801,CUST06110,COUR2445,-37.8045489,144.9432618,2020-11-13,13:30:59,1,0,Bike,"[('hyderabadi biryani', 3), ('naan', 2), ('chicken guntur', 3)]",0,77.15,2073,10,4.8854
ORD301014,REST1781,CUST02264,COUR1267,-37.8185502,144.96710990000005,2020-04-14,00:03:57,0,0,Bike,"[('peri peri chicken wings', 3), ('pizza', 3)]",0,125.16,848,4,2.9376
ORD003208,REST1781,CUST13551,COUR4680,-37.80553370000001,144.9736039,2020-02-11,12:23:44,1,0,Motorbike,"[('veggie pizza', 3), ('peri peri chicken wings', 1), ('coffee', 3)]",20,91.528,1563,3,4.808
ORD090822,REST1801,CUST06544,COUR4282,-37.8243049,144.9844019,2020-06-27,00:11:52,0,1,Car,"[('tandoori chicken', 1), ('panner tikka', 2)]",45,17.171,4184,10,4.6065
ORD221203,REST1781,CUST00343,COUR1760,-37.8204292,144.98192319999995,2020-11-21,02:18:27,0,1,Motorbike,"[('burgers', 3), ('veggie pizza', 3), ('peri peri chicken wings', 1)]",0,62.78,2299,5,4.5616
ORD053055,REST1858,CUST05213,COUR4289,-37.8197185,144.95990890000004,2020-08-13,06:19:46,0,0,Motorbike,"[('appam', 1), ('beef fry', 2), ('roast beef', 3)]",0,105.04,2371,5,3.6413
ORD158170,REST1781,CUST11451,COUR2463,-37.8038188,144.9643945,2020-01-18,15:53:24,0,1,Motorbike,"[('beef burger', 2), ('mango salad', 1), ('burgers', 3), ('peri peri chicken wings', 1)]",10,68.355,1407,3,3.845
ORD141853,REST1801,CUST10018,COUR4499,-37.8104777,145.0032768,2020-05-06,22:05:16,0,0,Bike,"[('chicken guntur', 1), ('chicken boneless biryani', 2), ('crispy chicken', 3)]",20,74.64,4542,23,4.69
ORD077316,REST1450,CUST08975,COUR1478,-37.8005165,144.9848006,2020-07-07,06:39:33,0,0,Bike,"[('puri sabzi', 1), ('rasgulla', 1)]",10,37.512,3916,20,4.6904
ORD272790,REST1450,CUST01198,COUR4040,-37.8019029,144.98689030000003,2020-04-22,10:29:00,0,0,Car,"[('samosa', 1), ('rasgulla', 1), ('poha', 3), ('jalebi', 1)]",20,55.864,4006,10,3.352
ORD022690,REST1450,CUST01289,COUR0902,-37.8014794,144.9768469,2020-11-19,06:39:33,0,0,Car,"[('puri sabzi', 3), ('jalebi', 1), ('samosa', 1)]",20,65.64,3160,8,3.6737
ORD316616,REST1450,CUST03112,COUR0236,-37.81417570000001,144.9854437,2020-02-29,01:46:48,0,1,Car,"[('poha', 1), ('rasgulla', 3)]",0,74.19,2963,7,4.7765
ORD313467,REST1801,CUST03028,COUR2959,-37.8243024,144.9694919,2020-05-14,16:48:47,0,0,Car,"[('hyderabadi biryani', 3), ('crispy chicken', 3), ('chicken guntur', 2)]",10,72.315,3146,8,3.4065
ORD055598,REST1801,CUST07283,COUR2719,-37.8205844,144.94844609999996,2020-10-16,20:26:22,0,0,Car,"[('hyderabadi biryani', 3), ('crispy chicken', 1), ('chicken guntur', 3)]",40,38.58,3266,8,3.5084
ORD194831,REST1450,CUST09140,COUR1627,-37.8042708,145.01116059999995,2020-11-30,13:07:15,1,0,Car,"[('puri sabzi', 2), ('poha', 1), ('kachori', 1), ('rasgulla', 2)]",0,99.86,6165,15,6.1639
ORD343327,REST1450,CUST12912,COUR0910,-37.825471,144.92908119999996,2020-08-14,20:26:22,0,0,Motorbike,"[('poha', 2), ('samosa', 1), ('rasgulla', 1), ('jalebi', 1)]",10,55.341,8605,17,4.5719
ORD347289,REST1801,CUST04052,COUR2253,-37.8206485,144.98343730000005,2020-07-05,08:34:17,0,1,Motorbike,"[('panner tikka', 1), ('chicken guntur', 2), ('chicken boneless biryani', 2), ('crispy chicken', 3)]",0,108.99,3836,8,4.7323
ORD239171,REST1450,CUST00211,COUR1134,-37.8019675,144.9540731,2020-10-22,04:44:50,0,0,Bike,"[('kachori', 3), ('jalebi', 1), ('poha', 1), ('puri sabzi', 1)]",10,56.358,2151,11,3.9134
ORD255883,REST1781,CUST07789,COUR0905,-37.7989706,144.9707095,2020-06-25,23:56:02,0,0,Bike,"[('pizza', 3), ('coffee', 2), ('chicken burger', 2)]",0,140.27,2149,11,3.9509
ORD210477,REST1858,CUST06406,COUR4827,-37.8023453,145.00481609999997,2020-08-17,14:10:32,0,0,Car,"[('mackerel fry', 3), ('fish', 2), ('beef fry', 3)]",45,56.656000000000006,3596,9,3.3911
ORD215796,REST1450,CUST11795,COUR4682,-37.8147461,144.9383372,2020-05-18,11:16:29,0,0,Bike,"[('jalebi', 3), ('puri sabzi', 1), ('poha', 1)]",0,58.28,2023,10,3.726
ORD228976,REST1858,CUST08105,COUR0975,-37.818674,145.00522769999995,2020-07-22,02:54:03,0,0,Motorbike,"[('crab toast', 1), ('roast beef', 3)]",0,69.37,2226,4,3.1726
ORD009537,REST1858,CUST02148,COUR1314,-37.8049132,144.9523755,2020-04-20,20:22:25,0,0,Motorbike,"[('fish', 3), ('appam', 3), ('roast beef', 3)]",45,95.783,3872,8,3.6246
ORD223783,REST1801,CUST13523,COUR4504,-37.8230355,145.0087273,2020-07-14,18:23:44,1,0,Bike,"[('tandoori chicken', 3), ('naan', 3), ('chicken guntur', 3)]",10,111.375,6136,31,7.095
ORD275061,REST0936,CUST11512,COUR2699,-37.823161,144.9779073,2020-08-02,01:34:56,0,1,Motorbike,"[('tender coconut ice cream', 2), ('cheesecake', 1), ('begun pora', 3)]",0,125.85,5123,10,4.5298
ORD125609,REST1781,CUST06938,COUR2337,-37.8059881,144.95584409999995,2020-07-04,01:30:59,0,1,Bike,"[('veggie pizza', 2), ('pizza', 3), ('coffee', 2), ('mango salad', 1)]",40,94.686,1567,8,4.672
ORD100591,REST1450,CUST03744,COUR3874,-37.81112529999999,144.93695559999995,2020-05-31,01:46:48,0,1,Bike,"[('jalebi', 2), ('samosa', 2), ('puri sabzi', 2), ('poha', 2)]",20,81.488,2140,11,4.8401
ORD132765,REST0936,CUST04962,COUR4414,-37.8121744,144.9738623,2020-09-23,16:32:58,0,0,Bike,"[('banana chips', 2), ('cheesecake', 3)]",0,76.31,4322,22,4.8957
ORD025043,REST1858,CUST07984,COUR1999,-37.8240299,144.9852688,2020-12-07,03:25:42,0,0,Bike,"[('roast beef', 2), ('appam', 3), ('beef fry', 1)]",0,112.84,436,2,3.2846
ORD318253,REST1858,CUST10127,COUR0341,-37.8132571,145.0145371,2020-10-10,14:50:06,0,1,Motorbike,"[('appam', 3), ('beef fry', 1), ('fish', 3)]",0,121.15,3694,7,4.4069
ORD183038,REST1781,CUST12490,COUR4921,-37.8174248,144.9526301,2020-01-29,09:57:21,0,0,Car,"[('pizza', 2), ('veggie pizza', 2), ('chicken burger', 2)]",0,89.32,1309,3,3.269
ORD235070,REST1450,CUST09943,COUR3199,-37.8175692,144.95228,2020-08-13,00:27:41,0,0,Car,"[('puri sabzi', 2), ('jalebi', 2)]",0,59.6,352,1,3.093
ORD156506,REST1858,CUST09504,COUR1413,-37.8041347,144.9833648,2020-10-18,07:54:43,0,1,Motorbike,"[('mackerel fry', 1), ('roast beef', 3), ('kerala parotta', 2)]",0,103.73,2228,4,4.6633
ORD259842,REST1450,CUST11223,COUR2603,-37.8028864,144.9508198,2020-05-07,23:56:02,0,0,Car,"[('samosa', 2), ('kachori', 3), ('jalebi', 3), ('poha', 2)]",20,77.56,2093,5,3.5959
ORD225630,REST1450,CUST05786,COUR3216,-37.8104498,144.9432571,2020-10-22,11:40:13,0,0,Car,"[('poha', 3), ('samosa', 3), ('jalebi', 3)]",0,93.6,2775,7,3.2373
ORD069417,REST0936,CUST01715,COUR0450,-37.8270458,144.9616049,2020-07-17,07:15:09,0,0,Motorbike,"[('mocha chingri', 2), ('cheesecake', 3), ('banana chips', 2)]",0,114.85,3931,8,3.3624
ORD201393,REST1450,CUST04036,COUR3558,-37.82028270000001,144.9825612,2020-12-08,01:46:48,0,0,Bike,"[('puri sabzi', 1), ('kachori', 2), ('rasgulla', 3)]",0,101.9,2875,14,4.5248
ORD007214,REST1858,CUST01039,COUR1305,-37.8059773,144.927982,2020-09-05,13:19:07,1,1,Motorbike,"[('roast beef', 3), ('appam', 2)]",20,82.78399999999999,5922,12,6.8422
ORD004772,REST1801,CUST11261,COUR4466,-37.8048939,144.9615325,2020-09-28,18:00:00,1,0,Bike,"[('chicken guntur', 1), ('panner tikka', 3), ('crispy chicken', 2)]",0,53.59,3101,16,5.897
ORD248972,REST1781,CUST12311,COUR4136,-37.8136573,144.95728530000005,2020-10-29,20:34:17,0,0,Car,"[('veggie pizza', 3), ('pizza', 1)]",0,51.12,988,2,2.9737
ORD109116,REST1781,CUST01290,COUR2868,-37.8007815,144.9702703,2020-01-03,16:01:19,0,0,Motorbike,"[('pizza', 2), ('beef burger', 1)]",0,55.97,1919,4,2.9861
ORD320898,REST1781,CUST02295,COUR2442,-37.817534,144.9704597,2020-02-21,14:10:32,0,0,Motorbike,"[('chicken burger', 1), ('mango salad', 3)]",20,64.736,1128,2,2.8399
ORD270823,REST1801,CUST01384,COUR2028,-37.8124511,144.9671477,2020-08-06,20:10:32,0,0,Motorbike,"[('panner tikka', 3), ('chicken guntur', 2), ('tandoori chicken', 2), ('chicken boneless biryani', 3)]",0,143.44,1927,4,2.5608
ORD325610,REST1858,CUST04558,COUR0649,-37.81447100000001,144.9496471,2020-11-23,08:58:01,0,0,Motorbike,"[('fish', 1), ('mackerel fry', 3), ('kerala parotta', 3), ('crab toast', 3)]",40,67.434,4102,8,3.7091
ORD164648,REST1781,CUST01197,COUR2057,-37.8104033,144.9990862,2020-11-29,22:40:52,0,1,Car,"[('coffee', 2), ('peri peri chicken wings', 1), ('mango salad', 1)]",40,52.17,3500,8,4.6695
ORD166468,REST1450,CUST00182,COUR0218,-37.800251,144.96242890000005,2020-08-19,08:58:01,0,0,Motorbike,"[('rasgulla', 2), ('poha', 1)]",0,52.24,2694,5,3.2974
ORD282065,REST1858,CUST11879,COUR3898,-37.8110224,145.0051534,2020-01-03,06:07:54,0,0,Car,"[('beef fry', 3), ('crab toast', 2)]",0,43.46,2836,7,3.6186
ORD039786,REST1450,CUST09510,COUR3482,-37.8121009,144.9745325,2020-08-23,21:37:34,0,1,Car,"[('jalebi', 3), ('samosa', 1)]",0,43.0,1939,5,4.5062
ORD186381,REST0936,CUST12052,COUR4925,-37.8103416,144.96139509999998,2020-11-06,18:59:20,1,0,Bike,"[('saffron pilaf', 3), ('banana chips', 1)]",20,71.984,3120,16,5.2668
ORD290188,REST1450,CUST08510,COUR4341,-37.8160248,144.9370694,2020-09-21,02:42:11,0,0,Car,"[('jalebi', 3), ('samosa', 2), ('puri sabzi', 2), ('poha', 3)]",10,108.243,2123,5,3.2903
ORD159624,REST1858,CUST11293,COUR2896,-37.7990823,144.99275790000004,2020-08-27,18:03:57,1,0,Motorbike,"[('crab toast', 1), ('kerala parotta', 2), ('mackerel fry', 1), ('roast beef', 3)]",20,87.50399999999999,2920,6,4.5556
ORD003810,REST1781,CUST01104,COUR0635,-37.8106519,145.01599869999995,2020-02-16,10:25:03,0,1,Car,"[('veggie pizza', 3), ('mango salad', 2), ('peri peri chicken wings', 3)]",10,115.272,5482,13,5.2165
ORD058117,REST1781,CUST02690,COUR0797,-37.7992088,144.9688243,2020-10-26,20:46:09,0,0,Car,"[('beef burger', 3), ('chicken burger', 2), ('pizza', 1)]",45,40.7,2041,5,3.1621
ORD118222,REST1450,CUST11550,COUR3119,-37.8206841,144.94136719999997,2020-07-08,16:32:58,0,0,Bike,"[('jalebi', 2), ('poha', 3)]",0,45.16,1275,6,3.2805
ORD122964,REST1858,CUST04000,COUR2812,-37.8244158,144.94448219999995,2020-07-23,07:07:15,0,0,Motorbike,"[('beef fry', 2), ('mackerel fry', 2), ('kerala parotta', 1), ('appam', 3)]",0,119.58,3961,8,3.8541
ORD052776,REST1450,CUST02710,COUR1670,-37.8197075,145.0036809,2020-12-28,19:34:56,1,0,Car,"[('poha', 1), ('samosa', 3)]",40,28.026,4665,11,5.3777
ORD261813,REST0936,CUST10898,COUR2812,-37.8075061,144.94662140000003,2020-06-15,06:31:38,0,0,Motorbike,"[('saffron pilaf', 2), ('cheesecake', 2), ('paratha', 1), ('begun pora', 2)]",0,130.94,1525,3,2.8788
ORD182154,REST1781,CUST07017,COUR1512,-37.8055395,144.955269,2020-10-31,00:07:54,0,1,Bike,"[('pizza', 1), ('mango salad', 1), ('veggie pizza', 3), ('beef burger', 1)]",0,82.99,1660,8,4.4606
ORD190421,REST1450,CUST01223,COUR3677,-37.8042304,144.9947019,2020-05-11,05:16:29,0,0,Motorbike,"[('jalebi', 3), ('puri sabzi', 3)]",0,89.4,4574,9,3.7414
ORD163720,REST1858,CUST04535,COUR1481,-37.8162159,144.950775,2020-12-17,05:28:21,0,0,Car,"[('kerala parotta', 1), ('roast beef', 1), ('beef fry', 2), ('crab toast', 2)]",10,61.038,3704,9,3.8371
ORD256200,REST1858,CUST06484,COUR2361,-37.8212466,145.0150229,2020-08-08,01:23:04,0,1,Car,"[('crab toast', 3), ('kerala parotta', 1)]",0,30.79,3153,8,5.1157
ORD069431,REST1450,CUST09157,COUR0933,-37.81519229999999,144.9596078,2020-09-17,23:16:29,0,0,Motorbike,"[('samosa', 1), ('jalebi', 1), ('rasgulla', 2), ('puri sabzi', 1)]",0,86.49,747,1,3.0362
ORD321390,REST1858,CUST10964,COUR1971,-37.8067439,144.9490498,2020-09-24,12:43:30,1,0,Motorbike,"[('beef fry', 1), ('crab toast', 3), ('appam', 1), ('kerala parotta', 1)]",20,49.112,4178,8,5.4765
ORD011712,REST1450,CUST11524,COUR4509,-37.8205705,144.9956122,2020-03-20,05:36:15,0,0,Motorbike,"[('samosa', 1), ('rasgulla', 1)]",10,31.266,3912,8,3.3488
ORD120282,REST1801,CUST03799,COUR0200,-37.8243004,144.93697680000002,2020-01-03,13:15:09,1,0,Motorbike,"[('naan', 3), ('chicken guntur', 2), ('hyderabadi biryani', 2)]",0,72.8,4801,10,5.0995
ORD225791,REST1450,CUST10895,COUR0993,-37.8155822,144.9579939,2020-12-31,12:43:30,1,0,Bike,"[('rasgulla', 1), ('puri sabzi', 3), ('poha', 3)]",0,106.16,619,3,4.5381
ORD275708,REST1450,CUST07397,COUR2708,-37.8233887,144.967428,2020-10-19,23:16:29,0,0,Motorbike,"[('kachori', 1), ('samosa', 1), ('puri sabzi', 3), ('jalebi', 1)]",45,49.61600000000001,1559,3,3.1118
ORD323406,REST1781,CUST00380,COUR2926,-37.8206475,144.95396680000005,2020-10-28,18:43:30,1,0,Car,"[('burgers', 3), ('peri peri chicken wings', 3)]",0,71.55,1976,5,4.8161
ORD282795,REST1801,CUST00575,COUR0564,-37.8174848,144.965281,2020-07-22,09:53:24,0,0,Bike,"[('chicken boneless biryani', 3), ('hyderabadi biryani', 1), ('crispy chicken', 3)]",10,102.699,2280,11,3.4621
ORD124602,REST1858,CUST03829,COUR3696,-37.8104122,144.98826630000005,2020-07-24,03:41:32,0,0,Motorbike,"[('kerala parotta', 1), ('mackerel fry', 3), ('crab toast', 2), ('fish', 1)]",20,63.248000000000005,1549,3,3.159
ORD171290,REST1450,CUST11689,COUR1400,-37.8180074,144.9317997,2020-09-17,12:39:33,1,0,Bike,"[('puri sabzi', 1), ('poha', 2), ('rasgulla', 3), ('jalebi', 3)]",0,132.47,2704,14,5.8962
ORD255384,REST1781,CUST12012,COUR3205,-37.8132344,145.0001751,2020-03-05,02:38:14,0,0,Motorbike,"[('veggie pizza', 2), ('peri peri chicken wings', 3), ('chicken burger', 3), ('burgers', 1)]",0,114.33,3654,7,3.2595
ORD210367,REST1801,CUST12843,COUR0839,-37.7997371,144.9348231,2020-01-22,06:11:52,0,0,Car,"[('chicken boneless biryani', 1), ('crispy chicken', 3), ('hyderabadi biryani', 3), ('tandoori chicken', 3)]",0,140.69,5789,14,3.9398
ORD007592,REST1858,CUST00514,COUR0196,-37.8125676,144.95607980000003,2020-05-10,19:27:01,1,1,Motorbike,"[('mackerel fry', 2), ('fish', 3)]",20,60.36,3282,7,6.0476
ORD186384,REST1781,CUST04385,COUR0999,-37.827091,144.9749192,2020-07-07,21:25:42,0,0,Motorbike,"[('chicken burger', 3), ('beef burger', 1)]",20,35.704,2104,4,3.1251
ORD096425,REST1858,CUST00556,COUR2450,-37.8214213,144.9639248,2020-12-21,03:57:21,0,0,Bike,"[('fish', 1), ('beef fry', 3), ('mackerel fry', 3), ('crab toast', 2)]",0,97.38,2160,11,3.654
ORD006489,REST1858,CUST00590,COUR0550,-37.81385510000001,144.9423532,2020-02-25,12:35:36,1,0,Motorbike,"[('appam', 2), ('mackerel fry', 2)]",20,51.536,4464,9,5.462000000000001
ORD074566,REST1450,CUST13164,COUR1446,-37.8082252,144.9398885,2020-01-06,02:22:25,0,0,Motorbike,"[('jalebi', 3), ('puri sabzi', 2), ('samosa', 1)]",45,45.353,1931,4,3.0741
ORD096293,REST1781,CUST11452,COUR0238,-37.8194552,145.01596,2020-10-12,05:56:02,0,0,Bike,"[('mango salad', 3), ('chicken burger', 3), ('peri peri chicken wings', 3), ('pizza', 3)]",45,126.456,6475,32,6.1837
ORD232197,REST1801,CUST08884,COUR1449,-37.8143539,145.00613930000003,2020-05-02,12:31:38,1,1,Motorbike,"[('naan', 3), ('hyderabadi biryani', 2), ('chicken boneless biryani', 1)]",0,76.44,5121,10,5.8659
ORD038807,REST1781,CUST01633,COUR4463,-37.8161788,145.00745419999996,2020-08-11,11:52:05,0,0,Motorbike,"[('peri peri chicken wings', 1), ('burgers', 3)]",10,31.689,4358,9,3.6337
ORD192097,REST1781,CUST12653,COUR0499,-37.8036771,144.9499644,2020-05-29,13:46:48,1,0,Bike,"[('beef burger', 1), ('veggie pizza', 2), ('mango salad', 1)]",0,50.25,2337,12,5.1534
ORD192430,REST1858,CUST05826,COUR1130,-37.8102123,144.9807122,2020-01-09,10:21:05,0,0,Motorbike,"[('mackerel fry', 2), ('kerala parotta', 3)]",40,39.708,1490,3,3.629
ORD151231,REST1858,CUST04189,COUR1932,-37.8260379,144.9837062,2020-09-13,16:36:55,0,1,Car,"[('kerala parotta', 3), ('fish', 1)]",0,58.45,880,2,3.9107
ORD019167,REST0936,CUST02107,COUR2510,-37.79976170000001,144.99708059999998,2020-10-03,15:41:32,0,1,Car,"[('begun pora', 2), ('saffron pilaf', 1), ('tender coconut ice cream', 1), ('banana chips', 2)]",0,131.08,6737,16,5.2685
ORD214960,REST1450,CUST06143,COUR4610,-37.806173,144.9539356,2020-01-16,01:11:12,0,0,Motorbike,"[('rasgulla', 3), ('jalebi', 2), ('puri sabzi', 1), ('samosa', 3)]",40,86.454,1653,3,3.1634
ORD233840,REST1801,CUST02076,COUR2242,-37.7989614,145.0109993,2020-04-06,06:11:52,0,0,Bike,"[('hyderabadi biryani', 2), ('naan', 2), ('crispy chicken', 2)]",0,66.5,5180,26,5.3728
ORD239508,REST1858,CUST12722,COUR3738,-37.8149732,144.9273875,2020-02-11,06:43:30,0,0,Car,"[('fish', 2), ('crab toast', 1)]",45,21.73,6708,16,4.6007
ORD310971,REST1450,CUST00155,COUR2120,-37.8110063,145.005156,2020-02-12,01:38:54,0,0,Car,"[('samosa', 3), ('rasgulla', 3)]",10,93.798,4946,12,4.1786
ORD318120,REST1781,CUST06122,COUR0159,-37.81013170000001,144.957781,2020-08-11,08:22:25,0,0,Bike,"[('veggie pizza', 2), ('coffee', 3)]",20,69.64,1155,6,3.4652
ORD139455,REST1450,CUST10211,COUR3110,-37.8136961,144.9461109,2020-10-20,15:17:48,0,0,Car,"[('poha', 1), ('samosa', 2), ('kachori', 2), ('puri sabzi', 1)]",45,38.484,1173,3,3.1077
ORD260472,REST1858,CUST12400,COUR1438,-37.8097389,144.9463419,2020-04-19,23:52:05,0,1,Bike,"[('appam', 3), ('mackerel fry', 3), ('kerala parotta', 3)]",40,82.89,4374,22,6.4404
ORD333288,REST1858,CUST00100,COUR0793,-37.81007620000001,144.9960042,2020-01-08,10:40:52,0,0,Car,"[('fish', 1), ('crab toast', 1), ('roast beef', 3), ('appam', 2)]",40,75.63600000000001,2121,5,3.5116
ORD297513,REST1801,CUST08305,COUR3436,-37.8220691,144.9738881,2020-01-26,19:34:56,1,1,Car,"[('naan', 1), ('tandoori chicken', 1), ('chicken guntur', 2), ('chicken boneless biryani', 3)]",40,71.328,3198,8,5.9782
ORD151672,REST1801,CUST04207,COUR0783,-37.82385410000001,144.9793442,2020-07-23,04:17:08,0,0,Motorbike,"[('chicken boneless biryani', 3), ('crispy chicken', 3)]",10,95.823,3864,8,3.2808
ORD039744,REST1450,CUST04468,COUR1286,-37.8213016,144.9575809,2020-12-20,18:55:23,1,1,Bike,"[('puri sabzi', 2), ('samosa', 3)]",20,62.264,527,3,5.4464
ORD228378,REST1801,CUST13071,COUR2011,-37.8233026,144.96800380000005,2020-10-01,02:38:14,0,0,Car,"[('crispy chicken', 2), ('chicken guntur', 1), ('tandoori chicken', 1), ('panner tikka', 2)]",20,53.06399999999999,3063,7,3.4031
ORD241023,REST1781,CUST05691,COUR4555,-37.8139739,144.9377565,2020-08-28,05:20:26,0,0,Motorbike,"[('pizza', 3), ('peri peri chicken wings', 1), ('coffee', 3)]",10,141.741,3197,6,3.5118
ORD058178,REST1801,CUST09864,COUR3758,-37.810106,144.9555752,2020-07-16,13:34:56,1,0,Car,"[('naan', 1), ('tandoori chicken', 2)]",0,50.62,1539,4,4.5526
ORD302011,REST1858,CUST02512,COUR0077,-37.81406120000001,144.9999996,2020-05-04,08:30:19,0,0,Motorbike,"[('beef fry', 2), ('appam', 1)]",0,41.32,2115,4,3.3132
ORD128134,REST1801,CUST07871,COUR1690,-37.8160418,144.982697,2020-04-12,08:38:14,0,1,Car,"[('panner tikka', 1), ('chicken boneless biryani', 3), ('hyderabadi biryani', 1), ('crispy chicken', 3)]",20,96.216,3282,8,4.4576
ORD127477,REST1781,CUST01423,COUR4395,-37.8103248,144.96829259999996,2020-04-16,09:33:37,0,0,Motorbike,"[('coffee', 2), ('burgers', 3)]",10,56.538,763,2,3.1866
ORD254684,REST1781,CUST12242,COUR3171,-37.8083424,144.94738059999997,2020-06-15,04:52:44,0,0,Bike,"[('pizza', 2), ('beef burger', 3), ('chicken burger', 3), ('coffee', 2)]",0,155.25,2306,12,3.8326
ORD085191,REST1801,CUST11279,COUR0173,-37.8223778,144.9752217,2020-01-20,08:46:09,0,0,Car,"[('hyderabadi biryani', 2), ('chicken boneless biryani', 3)]",10,75.042,3294,8,2.9952
ORD160598,REST1450,CUST05079,COUR3414,-37.820181700000006,144.957557,2020-02-15,00:59:20,0,1,Bike,"[('poha', 1), ('rasgulla', 3), ('kachori', 1), ('puri sabzi', 2)]",0,121.81,396,2,3.6425
ORD254642,REST1781,CUST12955,COUR3869,-37.8114948,144.9523094,2020-01-18,17:04:36,0,1,Car,"[('coffee', 3), ('chicken burger', 2)]",10,83.259,1613,4,3.7776
ORD345040,REST1858,CUST11598,COUR3717,-37.8074398,144.9705945,2020-03-01,01:54:43,0,1,Motorbike,"[('crab toast', 1), ('fish', 1), ('beef fry', 1)]",0,33.3,2236,4,4.2526
ORD143253,REST1781,CUST04791,COUR2447,-37.8048149,144.9257383,2020-10-06,17:16:29,0,0,Car,"[('veggie pizza', 1), ('coffee', 2)]",20,43.976000000000006,4215,10,3.9754
ORD056879,REST1781,CUST04704,COUR4191,-37.8045541,144.9277419,2020-12-24,06:51:25,0,0,Car,"[('mango salad', 1), ('veggie pizza', 3)]",0,50.57,4046,10,3.9848
ORD081165,REST0936,CUST06051,COUR1342,-37.80517920000001,144.940973,2020-07-13,19:27:01,1,0,Motorbike,"[('tender coconut ice cream', 2), ('saffron pilaf', 3), ('paratha', 3), ('begun pora', 2)]",40,112.848,1066,2,4.2235
ORD323797,REST1781,CUST12832,COUR1849,-37.8001972,144.9354185,2020-02-12,03:37:34,0,0,Bike,"[('coffee', 3), ('pizza', 2), ('chicken burger', 3), ('mango salad', 3)]",40,132.31799999999998,6552,33,6.2631
ORD176103,REST0936,CUST05059,COUR1624,-37.8200673,144.9586124,2020-07-02,15:57:21,0,0,Car,"[('paratha', 2), ('banana chips', 3), ('mocha chingri', 3)]",20,107.864,3196,8,3.1184
ORD144435,REST1450,CUST03608,COUR4409,-37.825342600000006,144.9513179,2020-10-03,23:56:02,0,1,Motorbike,"[('samosa', 3), ('jalebi', 1)]",40,29.064,1036,2,3.6311
ORD009442,REST1781,CUST00485,COUR0010,-37.8189026,144.9471781,2020-07-17,14:54:03,0,0,Car,"[('peri peri chicken wings', 3), ('burgers', 1)]",10,54.17100000000001,1907,5,3.464
ORD019103,REST1781,CUST04363,COUR1893,-37.8230066,144.9876456,2020-08-28,05:16:29,0,0,Bike,"[('pizza', 2), ('chicken burger', 1), ('burgers', 3)]",0,76.06,2801,14,4.2392
ORD190677,REST0936,CUST06172,COUR1818,-37.8154379,144.9340363,2020-01-12,17:16:29,0,1,Bike,"[('tender coconut ice cream', 1), ('saffron pilaf', 1)]",10,39.024,1839,9,4.2908
ORD081768,REST1450,CUST01552,COUR2271,-37.8139845,144.9925554,2020-09-20,08:58:01,0,1,Motorbike,"[('poha', 1), ('rasgulla', 3)]",20,59.352,3758,8,4.4866
ORD123601,REST1781,CUST13678,COUR1665,-37.8194415,144.9541739,2020-10-02,22:32:58,0,0,Motorbike,"[('beef burger', 1), ('veggie pizza', 2)]",0,27.25,1454,3,3.0826
ORD224108,REST0936,CUST05142,COUR4674,-37.8245429,144.95288630000005,2020-09-11,19:38:54,1,0,Motorbike,"[('tender coconut ice cream', 1), ('paratha', 2)]",0,38.92,3263,7,4.6614
ORD061414,REST1801,CUST00593,COUR1740,-37.8147157,144.94008390000005,2020-12-23,17:04:36,0,0,Motorbike,"[('crispy chicken', 3), ('chicken guntur', 1), ('chicken boneless biryani', 3), ('hyderabadi biryani', 3)]",0,138.92,2923,6,3.1765
ORD204549,REST0936,CUST04176,COUR0840,-37.8236865,144.98682019999995,2020-12-04,05:44:10,0,0,Motorbike,"[('saffron pilaf', 3), ('paratha', 3), ('begun pora', 3)]",40,103.824,5952,12,3.9692
ORD070461,REST1781,CUST00588,COUR2590,-37.81347720000001,144.9409691,2020-08-30,13:19:07,1,1,Bike,"[('mango salad', 2), ('peri peri chicken wings', 2), ('burgers', 1), ('chicken burger', 3)]",0,123.78,2657,13,6.9963
ORD308447,REST0936,CUST07299,COUR3796,-37.8195394,144.95269309999995,2020-12-26,11:40:13,0,1,Car,"[('saffron pilaf', 1), ('mocha chingri', 1), ('banana chips', 2)]",10,73.28699999999999,2577,6,4.2213
ORD023314,REST1858,CUST11876,COUR3513,-37.8109494,145.00472340000005,2020-11-04,09:37:34,0,0,Motorbike,"[('mackerel fry', 3), ('crab toast', 2), ('fish', 1), ('kerala parotta', 3)]",20,85.39200000000001,2801,6,3.4578
ORD235495,REST1450,CUST11064,COUR1604,-37.8074762,144.95221930000002,2020-02-10,14:58:01,0,0,Car,"[('puri sabzi', 3), ('kachori', 3), ('samosa', 1)]",40,57.876000000000005,1515,4,3.4038
ORD128387,REST1858,CUST11350,COUR1234,-37.8098985,145.01438159999995,2020-08-26,13:58:40,1,0,Bike,"[('beef fry', 1), ('fish', 2), ('roast beef', 2)]",0,87.06,4001,20,6.2467
ORD329927,REST1801,CUST02918,COUR2704,-37.8012603,144.9747488,2020-09-29,09:41:32,0,0,Motorbike,"[('chicken guntur', 2), ('crispy chicken', 2), ('chicken boneless biryani', 3), ('naan', 1)]",0,125.56,1390,3,3.0687
ORD248248,REST0936,CUST01895,COUR2065,-37.8197364,144.97919230000005,2020-06-22,06:07:54,0,0,Car,"[('saffron pilaf', 3), ('tender coconut ice cream', 1), ('cheesecake', 2), ('mocha chingri', 2)]",0,154.16,5072,12,3.617
ORD232495,REST1781,CUST11063,COUR1953,-37.8077181,144.9520858,2020-03-22,06:19:46,0,1,Car,"[('mango salad', 3), ('burgers', 2), ('peri peri chicken wings', 1)]",0,98.53,1903,5,3.7445
ORD322941,REST0936,CUST11157,COUR0655,-37.80347,144.9467147,2020-05-14,19:46:48,1,0,Motorbike,"[('cheesecake', 2), ('saffron pilaf', 2), ('paratha', 3)]",0,100.94,1641,3,4.2780000000000005
ORD084001,REST0936,CUST04008,COUR2447,-37.8246085,144.94663269999995,2020-11-16,22:36:55,0,0,Car,"[('begun pora', 1), ('saffron pilaf', 1), ('banana chips', 1), ('paratha', 2)]",40,51.924,2907,7,3.2769
ORD280977,REST0936,CUST01755,COUR0495,-37.81287920000001,144.9716044,2020-02-07,22:13:11,0,0,Car,"[('paratha', 2), ('cheesecake', 2)]",0,44.26,4172,10,3.9944
ORD202451,REST1858,CUST11115,COUR1200,-37.8103338,144.9470645,2020-09-03,21:01:58,0,0,Car,"[('mackerel fry', 2), ('roast beef', 3)]",0,88.38,4267,10,3.9463
ORD062614,REST0936,CUST06388,COUR4375,-37.81644470000001,144.9458051,2020-02-13,12:27:41,1,0,Bike,"[('tender coconut ice cream', 3), ('cheesecake', 1), ('mocha chingri', 2), ('begun pora', 3)]",20,147.352,2022,10,4.9929
ORD247594,REST1781,CUST12697,COUR3743,-37.8039516,144.94984219999995,2020-01-11,10:52:44,0,1,Motorbike,"[('coffee', 3), ('chicken burger', 1), ('beef burger', 3), ('peri peri chicken wings', 2)]",45,78.947,2369,5,4.0482
ORD243704,REST0936,CUST01980,COUR0924,-37.812075,145.01481030000005,2020-05-25,07:11:12,0,0,Car,"[('cheesecake', 2), ('banana chips', 1), ('begun pora', 3), ('mocha chingri', 1)]",0,137.39,7568,18,4.1707
ORD017701,REST0936,CUST00693,COUR0005,-37.8000698,144.9953249,2020-10-06,20:22:25,0,0,Motorbike,"[('tender coconut ice cream', 3), ('banana chips', 3)]",40,70.38,6536,13,4.0762
ORD116827,REST1781,CUST00674,COUR4784,-37.8030418,144.99806,2020-10-04,22:13:11,0,1,Motorbike,"[('peri peri chicken wings', 3), ('chicken burger', 1), ('burgers', 3)]",0,83.47,3996,8,4.3433
ORD161461,REST1781,CUST09381,COUR3801,-37.8070898,144.9599543,2020-01-21,00:23:44,0,0,Bike,"[('chicken burger', 2), ('veggie pizza', 1), ('coffee', 1), ('mango salad', 2)]",10,91.728,1147,6,3.2612
ORD063972,REST1801,CUST13277,COUR1534,-37.8003079,144.9588043,2020-09-10,12:15:49,1,0,Motorbike,"[('panner tikka', 3), ('hyderabadi biryani', 2), ('tandoori chicken', 2)]",40,42.93600000000001,299,1,4.119
ORD341963,REST1450,CUST03689,COUR1570,-37.8041811,144.954451,2020-02-12,12:15:49,1,0,Bike,"[('jalebi', 3), ('samosa', 1)]",45,23.65,1953,10,5.8347
ORD013755,REST1450,CUST07070,COUR0694,-37.8019112,144.9578642,2020-02-14,02:42:11,0,0,Bike,"[('kachori', 2), ('poha', 3), ('rasgulla', 2)]",0,85.24,2339,12,3.9285
ORD229229,REST1450,CUST13569,COUR2870,-37.8209083,144.94230159999995,2020-10-13,06:03:57,0,0,Motorbike,"[('kachori', 3), ('samosa', 3), ('jalebi', 1)]",0,72.92,1188,2,2.6483
ORD291647,REST1858,CUST02703,COUR4692,-37.8001117,144.9690652,2020-04-09,17:48:07,0,0,Bike,"[('roast beef', 1), ('crab toast', 2), ('kerala parotta', 3), ('mackerel fry', 1)]",0,86.39,3262,16,4.6281
ORD104819,REST0936,CUST10556,COUR0679,-37.8224731,144.937681,2020-03-01,13:50:46,1,1,Motorbike,"[('paratha', 1), ('cheesecake', 2), ('mocha chingri', 2), ('begun pora', 1)]",0,97.8,3073,6,5.7355
ORD141389,REST1781,CUST00376,COUR0425,-37.8109297,145.0153861,2020-02-28,04:40:52,0,0,Bike,"[('mango salad', 1), ('burgers', 2), ('coffee', 2)]",0,80.14,5002,25,4.9608
ORD244980,REST1801,CUST04220,COUR2982,-37.8212735,144.9835621,2020-05-19,01:27:01,0,0,Motorbike,"[('panner tikka', 1), ('chicken guntur', 1), ('crispy chicken', 3)]",45,29.733,3809,8,3.4292
ORD098663,REST1801,CUST02778,COUR3263,-37.79931079999999,144.9682919,2020-11-17,00:47:28,0,0,Bike,"[('naan', 1), ('hyderabadi biryani', 3), ('tandoori chicken', 3)]",0,92.44,928,5,2.7604
ORD346797,REST0936,CUST01139,COUR3523,-37.8012586,145.00513080000005,2020-05-28,03:29:40,0,0,Car,"[('cheesecake', 3), ('paratha', 3)]",20,53.112,7588,18,4.2515
ORD230024,REST1801,CUST04667,COUR4229,-37.80885410000001,144.9362498,2020-02-03,18:27:41,1,0,Bike,"[('chicken guntur', 1), ('chicken boneless biryani', 1), ('panner tikka', 2), ('naan', 1)]",0,57.37,3146,16,5.3716
ORD170976,REST0936,CUST11613,COUR0134,-37.8189955,144.9541445,2020-07-18,19:34:56,1,1,Car,"[('begun pora', 3), ('banana chips', 1), ('paratha', 2), ('mocha chingri', 1)]",0,131.37,2620,6,5.7556
ORD072179,REST1781,CUST01338,COUR4471,-37.82263,144.96417119999995,2020-06-26,22:09:13,0,0,Motorbike,"[('peri peri chicken wings', 1), ('coffee', 1)]",0,41.06,1361,3,3.1381
ORD127814,REST1781,CUST02507,COUR0272,-37.8039689,144.9582379,2020-04-26,06:51:25,0,1,Motorbike,"[('mango salad', 2), ('coffee', 1), ('burgers', 2), ('beef burger', 2)]",20,78.392,1535,3,4.2358
ORD036933,REST1781,CUST07597,COUR2427,-37.8134973,144.937773,2020-06-15,06:51:25,0,0,Bike,"[('coffee', 1), ('mango salad', 3), ('peri peri chicken wings', 1), ('beef burger', 1)]",0,118.93,3314,17,4.6234
ORD105404,REST1801,CUST05541,COUR2766,-37.8198852,144.95773369999995,2020-02-21,21:41:32,0,0,Motorbike,"[('panner tikka', 1), ('crispy chicken', 1), ('hyderabadi biryani', 1)]",0,26.59,2829,6,3.3759
ORD179592,REST0936,CUST01952,COUR0117,-37.8083056,144.9786866,2020-04-09,17:28:21,0,0,Bike,"[('paratha', 1), ('begun pora', 2), ('tender coconut ice cream', 3), ('cheesecake', 3)]",0,155.79,4366,22,4.8914
ORD260712,REST0936,CUST10574,COUR4563,-37.8062363,144.9324545,2020-10-26,10:13:11,0,0,Motorbike,"[('banana chips', 2), ('tender coconut ice cream', 1), ('mocha chingri', 3)]",0,116.21,57,0,2.4403
ORD277601,REST1450,CUST11368,COUR3769,-37.81385039999999,144.9573018,2020-06-09,19:46:48,1,0,Motorbike,"[('jalebi', 2), ('samosa', 2), ('rasgulla', 2), ('kachori', 3)]",10,102.69,818,2,4.713
ORD324652,REST1450,CUST07492,COUR3834,-37.8149615,144.94513419999996,2020-01-17,20:26:22,0,0,Bike,"[('poha', 3), ('rasgulla', 1)]",10,42.273,1226,6,3.2353
ORD111497,REST1450,CUST08062,COUR4720,-37.8199728,145.0164243,2020-08-11,13:03:17,1,0,Motorbike,"[('rasgulla', 2), ('poha', 3), ('jalebi', 2)]",40,53.43600000000001,5722,11,5.3803
ORD181016,REST1801,CUST01015,COUR4605,-37.8009902,144.918032,2020-12-08,21:05:56,0,0,Car,"[('chicken boneless biryani', 3), ('tandoori chicken', 2), ('naan', 1)]",0,118.72,4653,11,3.5706
ORD336353,REST0936,CUST05633,COUR0036,-37.8122532,144.93881330000005,2020-03-07,10:29:00,0,1,Car,"[('banana chips', 1), ('begun pora', 1), ('cheesecake', 1)]",40,33.858000000000004,1249,3,3.9215
ORD117378,REST1781,CUST00452,COUR0221,-37.8128704,144.9429994,2020-03-06,13:54:43,1,0,Motorbike,"[('burgers', 3), ('pizza', 3)]",0,87.69,2459,5,5.3053
ORD290443,REST1858,CUST00526,COUR2729,-37.81538320000001,144.96299419999997,2020-10-09,13:54:43,1,0,Bike,"[('appam', 3), ('crab toast', 1), ('fish', 2), ('beef fry', 3)]",0,131.31,2357,12,5.4677
ORD263595,REST1801,CUST02342,COUR4307,-37.8063268,145.00973380000005,2020-03-25,17:16:29,0,0,Motorbike,"[('crispy chicken', 1), ('tandoori chicken', 1), ('hyderabadi biryani', 2)]",0,46.97,4834,10,3.6943
ORD084138,REST1801,CUST12934,COUR0152,-37.8140404,144.9676254,2020-06-26,13:46:48,1,0,Motorbike,"[('panner tikka', 3), ('crispy chicken', 1), ('chicken boneless biryani', 2), ('chicken guntur', 1)]",0,86.2,2078,4,4.5592
ORD275951,REST1858,CUST12881,COUR2222,-37.8233335,144.99988090000005,2020-04-10,16:44:50,0,0,Motorbike,"[('roast beef', 3), ('mackerel fry', 3)]",0,100.71,1645,3,3.0262
ORD212708,REST1858,CUST09290,COUR3616,-37.81719320000001,144.95884180000004,2020-11-15,21:33:37,0,1,Motorbike,"[('mackerel fry', 2), ('crab toast', 2), ('appam', 2)]",10,68.148,2656,5,4.1816
ORD300935,REST1450,CUST02662,COUR4747,-37.8075664,144.9666053,2020-09-25,06:27:41,0,0,Bike,"[('samosa', 2), ('kachori', 3)]",0,50.06,2143,11,4.0573
ORD203161,REST1781,CUST11960,COUR3286,-37.8182775,144.9933897,2020-02-28,05:20:26,0,0,Car,"[('pizza', 2), ('burgers', 1), ('peri peri chicken wings', 3)]",0,107.29,3018,7,3.5544
ORD336693,REST1781,CUST06232,COUR0138,-37.8151591,144.93646280000004,2020-01-16,00:55:23,0,0,Car,"[('coffee', 3), ('chicken burger', 3), ('burgers', 1)]",0,110.11,3106,7,3.2884
ORD117995,REST1781,CUST02194,COUR1217,-37.8122064,144.9531642,2020-10-06,00:47:28,0,0,Car,"[('coffee', 1), ('burgers', 2), ('beef burger', 1), ('mango salad', 3)]",45,61.666,1512,4,3.1916
ORD296572,REST1450,CUST12125,COUR2502,-37.8231224,144.98919990000005,2020-02-23,18:15:49,1,1,Motorbike,"[('samosa', 3), ('kachori', 1), ('jalebi', 2)]",45,36.668,3421,7,5.8683
ORD066514,REST1858,CUST00757,COUR0552,-37.8142123,144.9612641,2020-05-02,14:50:06,0,1,Motorbike,"[('fish', 3), ('crab toast', 2)]",0,62.09,2730,5,4.5455
ORD073390,REST1781,CUST11165,COUR0133,-37.8044214,144.94987780000002,2020-11-21,04:44:50,0,1,Car,"[('veggie pizza', 3), ('burgers', 2)]",45,21.412,2227,5,4.5407
ORD046683,REST0936,CUST05332,COUR1168,-37.8152976,144.9661142,2020-02-16,21:37:34,0,1,Bike,"[('cheesecake', 2), ('begun pora', 1), ('saffron pilaf', 3), ('mocha chingri', 1)]",10,125.685,3740,19,5.2103
ORD253421,REST1801,CUST12210,COUR4493,-37.8254058,144.95147980000004,2020-08-20,19:15:09,1,0,Bike,"[('hyderabadi biryani', 1), ('chicken boneless biryani', 2)]",0,53.04,3809,19,5.8896
ORD287431,REST1450,CUST07039,COUR0100,-37.8039508,144.9580896,2020-07-13,08:50:06,0,0,Bike,"[('kachori', 3), ('samosa', 1)]",20,29.816,2071,10,3.6943
ORD073549,REST1801,CUST01848,COUR1071,-37.8261748,145.0083752,2020-03-09,12:47:28,1,0,Car,"[('panner tikka', 1), ('naan', 2), ('chicken boneless biryani', 3)]",10,89.91,6276,15,5.9433
ORD059034,REST1450,CUST09814,COUR0901,-37.8134886,144.9656257,2020-11-26,10:01:19,0,0,Bike,"[('kachori', 3), ('rasgulla', 3), ('poha', 3), ('puri sabzi', 1)]",0,135.08,1309,7,3.6196
ORD194081,REST0936,CUST12732,COUR3111,-37.81521160000001,144.9275535,2020-06-18,09:21:45,0,0,Motorbike,"[('tender coconut ice cream', 1), ('mocha chingri', 2), ('paratha', 2), ('saffron pilaf', 2)]",0,124.58,3489,7,3.253
ORD088627,REST1801,CUST04009,COUR3095,-37.8239148,144.9475744,2020-03-01,19:38:54,1,1,Bike,"[('chicken boneless biryani', 1), ('tandoori chicken', 1), ('naan', 1), ('chicken guntur', 1)]",0,63.95,3709,19,6.8853
ORD084193,REST1801,CUST10950,COUR3478,-37.8077742,144.948135,2020-11-07,08:38:14,0,1,Car,"[('naan', 3), ('tandoori chicken', 3), ('crispy chicken', 1)]",0,107.95,1827,4,4.0603
ORD188207,REST1781,CUST02416,COUR4453,-37.8146704,144.9952074,2020-05-20,13:54:43,1,0,Motorbike,"[('chicken burger', 3), ('pizza', 1)]",20,47.448,3259,7,5.1655
ORD347807,REST1450,CUST12351,COUR3436,-37.8114157,144.9730729,2020-06-27,12:47:28,1,1,Car,"[('rasgulla', 2), ('samosa', 2), ('puri sabzi', 2)]",20,87.152,2003,5,6.1368
ORD347250,REST1450,CUST06495,COUR2870,-37.825575,144.9828168,2020-01-14,04:56:42,0,0,Motorbike,"[('jalebi', 2), ('samosa', 3), ('puri sabzi', 3), ('rasgulla', 1)]",0,139.65,3169,6,3.4599
ORD269863,REST1450,CUST02751,COUR2863,-37.8070396,144.9985719,2020-03-22,19:46:48,1,1,Bike,"[('kachori', 3), ('puri sabzi', 3), ('rasgulla', 3), ('jalebi', 1)]",0,159.59,4694,23,7.8283
ORD001133,REST0936,CUST01663,COUR1846,-37.8153615,145.01226699999995,2020-04-28,12:39:33,1,0,Car,"[('mocha chingri', 2), ('paratha', 1)]",45,26.455,7895,19,5.8005
ORD225573,REST1858,CUST05103,COUR4358,-37.82107620000001,144.9550144,2020-06-06,14:02:38,0,1,Motorbike,"[('appam', 1), ('roast beef', 1), ('beef fry', 3)]",45,40.304,2840,6,4.5901
ORD248636,REST1781,CUST05874,COUR0488,-37.8172506,144.9553735,2020-07-22,00:07:54,0,0,Car,"[('mango salad', 2), ('veggie pizza', 2)]",45,35.409,1165,3,3.0673
ORD113532,REST0936,CUST04149,COUR3047,-37.8191604,144.98127549999995,2020-03-07,05:08:34,0,1,Motorbike,"[('begun pora', 2), ('saffron pilaf', 1), ('paratha', 2), ('tender coconut ice cream', 2)]",40,78.84,5235,10,4.8478
ORD318282,REST1450,CUST09944,COUR0287,-37.8175294,144.9523635,2020-05-17,18:07:54,1,1,Motorbike,"[('poha', 2), ('puri sabzi', 3), ('samosa', 3)]",0,114.24,352,1,5.282
ORD078497,REST1801,CUST10879,COUR2359,-37.8082895,144.9520024,2020-01-19,08:14:30,0,1,Bike,"[('naan', 1), ('crispy chicken', 3)]",45,28.155,1586,8,4.5723
ORD098719,REST1801,CUST05217,COUR1995,-37.8198468,144.96145280000005,2020-06-19,06:03:57,0,0,Motorbike,"[('naan', 2), ('crispy chicken', 1)]",40,23.058000000000003,2647,5,3.1207
ORD279467,REST1858,CUST10834,COUR4077,-37.8010331,144.92856719999995,2020-06-09,16:25:03,0,0,Car,"[('mackerel fry', 1), ('fish', 2)]",45,25.405,8059,19,4.8084
ORD150810,REST1450,CUST03823,COUR0352,-37.8038741,145.0152661,2020-10-12,17:36:15,0,0,Motorbike,"[('poha', 3), ('samosa', 2), ('jalebi', 1)]",45,33.368,6479,13,4.0819
ORD142336,REST1781,CUST06241,COUR1631,-37.8148243,144.9376494,2020-04-28,03:13:50,0,0,Motorbike,"[('peri peri chicken wings', 2), ('mango salad', 1), ('chicken burger', 3)]",20,76.08,2986,6,3.3209
ORD281713,REST1801,CUST11681,COUR1057,-37.82036160000001,144.9895831,2020-05-18,14:18:27,0,0,Car,"[('tandoori chicken', 3), ('naan', 2), ('chicken guntur', 1)]",0,91.87,4108,10,3.3896
ORD192613,REST1858,CUST03802,COUR3814,-37.8254474,144.9530928,2020-09-30,18:59:20,1,0,Motorbike,"[('mackerel fry', 3), ('kerala parotta', 1), ('beef fry', 3), ('fish', 2)]",40,70.11,3191,6,5.167000000000001
ORD272053,REST1781,CUST02166,COUR1437,-37.8040848,144.94532619999995,2020-06-26,18:03:57,1,0,Bike,"[('peri peri chicken wings', 3), ('mango salad', 1), ('coffee', 2)]",40,73.97399999999999,2593,13,5.3536
ORD194985,REST1858,CUST07037,COUR0777,-37.8030248,144.95780019999995,2020-07-28,19:38:54,1,0,Motorbike,"[('beef fry', 1), ('crab toast', 3), ('kerala parotta', 3), ('mackerel fry', 1)]",10,73.368,3557,7,5.2161
ORD127997,REST1801,CUST12155,COUR1055,-37.8243488,144.95549880000004,2020-02-17,06:23:44,0,0,Car,"[('chicken boneless biryani', 2), ('hyderabadi biryani', 3), ('chicken guntur', 2)]",0,87.38,3956,9,3.6352
ORD129474,REST0936,CUST09939,COUR3678,-37.8175489,144.9523246,2020-03-28,03:49:27,0,1,Bike,"[('banana chips', 1), ('saffron pilaf', 2)]",20,53.136,2443,12,4.9309
ORD105310,REST1801,CUST03228,COUR4124,-37.814846,144.94589030000003,2020-02-29,12:23:44,1,1,Bike,"[('tandoori chicken', 1), ('naan', 3)]",0,57.36,2621,13,6.6995
ORD321622,REST0936,CUST05509,COUR2017,-37.8144465,144.9619518,2020-03-22,18:11:52,1,1,Car,"[('banana chips', 3), ('saffron pilaf', 3), ('mocha chingri', 1), ('cheesecake', 1)]",0,160.42,3197,8,5.654
ORD281349,REST1801,CUST01109,COUR3583,-37.8104578,145.0115275,2020-05-05,18:15:49,1,0,Car,"[('hyderabadi biryani', 2), ('panner tikka', 3), ('chicken boneless biryani', 2)]",0,79.16,5380,13,5.1914
ORD147809,REST1801,CUST01411,COUR0496,-37.8107963,144.9711395,2020-03-05,00:27:41,0,0,Car,"[('naan', 3), ('chicken boneless biryani', 1), ('hyderabadi biryani', 1)]",0,68.8,2036,5,3.1481
ORD204611,REST1858,CUST03335,COUR2945,-37.8096826,144.9468195,2020-08-13,12:15:49,1,0,Motorbike,"[('crab toast', 3), ('appam', 1)]",0,36.83,4315,9,5.4418
ORD318920,REST1781,CUST11384,COUR0473,-37.799482,144.98058569999995,2020-05-06,00:51:25,0,0,Bike,"[('burgers', 3), ('coffee', 3)]",0,85.71,2651,13,4.0763
ORD349450,REST0936,CUST04593,COUR1513,-37.81189620000001,144.94580530000005,2020-05-12,15:05:56,0,0,Bike,"[('paratha', 1), ('banana chips', 1), ('begun pora', 3)]",40,61.524,1469,7,3.1329
ORD112082,REST1858,CUST03458,COUR2831,-37.821958,144.9938499,2020-01-25,19:07:15,1,1,Bike,"[('beef fry', 1), ('fish', 1)]",10,24.885,972,5,6.4339
ORD033330,REST0936,CUST01676,COUR1379,-37.82304050000001,145.0071465,2020-03-30,22:05:16,0,0,Bike,"[('saffron pilaf', 2), ('tender coconut ice cream', 1)]",0,66.92,7753,39,6.8084
ORD262620,REST1858,CUST07028,COUR2028,-37.80388350000001,144.95744,2020-09-28,06:23:44,0,0,Motorbike,"[('appam', 3), ('mackerel fry', 1)]",0,71.97,3512,7,3.7215
ORD286276,REST1781,CUST09383,COUR4683,-37.8132588,144.9626345,2020-11-28,03:01:58,0,1,Motorbike,"[('chicken burger', 1), ('beef burger', 1), ('veggie pizza', 3), ('peri peri chicken wings', 2)]",0,84.7,424,1,4.1326
ORD012728,REST1450,CUST03034,COUR0845,-37.8008794,144.9650005,2020-12-08,12:35:36,1,0,Bike,"[('kachori', 1), ('puri sabzi', 2)]",45,26.191,2832,14,5.4221
ORD146027,REST1781,CUST13710,COUR0113,-37.8156133,144.9665224,2020-04-15,16:32:58,0,0,Motorbike,"[('mango salad', 1), ('burgers', 1), ('pizza', 1), ('veggie pizza', 3)]",0,79.8,474,1,2.9123
ORD085418,REST0936,CUST09157,COUR3484,-37.81519229999999,144.9596078,2020-11-21,22:36:55,0,1,Motorbike,"[('tender coconut ice cream', 1), ('paratha', 3)]",0,48.48,2978,6,4.111000000000001
ORD332628,REST1781,CUST09748,COUR1120,-37.7991098,144.9502532,2020-10-26,13:23:04,1,0,Motorbike,"[('chicken burger', 3), ('mango salad', 3), ('veggie pizza', 3), ('pizza', 3)]",10,182.682,2497,5,4.7436
ORD062137,REST1858,CUST13598,COUR3318,-37.8031671,145.00454169999998,2020-12-04,14:54:03,0,0,Car,"[('crab toast', 2), ('mackerel fry', 1)]",10,21.267,3519,8,3.5057
ORD282860,REST1781,CUST08201,COUR0341,-37.818283,145.0074284,2020-01-28,04:29:00,0,0,Motorbike,"[('beef burger', 2), ('peri peri chicken wings', 2), ('pizza', 2), ('burgers', 1)]",0,106.86,4386,9,3.3812
ORD228023,REST1858,CUST05069,COUR0624,-37.819881,144.9612829,2020-10-16,00:00:00,0,0,Bike,"[('mackerel fry', 1), ('roast beef', 3), ('fish', 3)]",0,126.84,2234,11,4.0602
ORD304406,REST1450,CUST02214,COUR0366,-37.8135733,144.9502382,2020-08-05,07:23:04,0,0,Bike,"[('kachori', 3), ('jalebi', 2), ('rasgulla', 2), ('poha', 1)]",40,58.11600000000001,872,4,3.3499
ORD227712,REST1801,CUST05313,COUR4661,-37.8188045,144.9658251,2020-05-18,11:28:21,0,0,Motorbike,"[('hyderabadi biryani', 3), ('naan', 2)]",0,48.56,2432,5,3.2246
ORD103563,REST1858,CUST11259,COUR3268,-37.80473189999999,144.9576634,2020-12-15,00:19:46,0,0,Motorbike,"[('crab toast', 3), ('kerala parotta', 1), ('roast beef', 3)]",0,94.51,3434,7,3.6903
ORD089534,REST1801,CUST13119,COUR3161,-37.8217488,144.9368226,2020-05-26,21:49:27,0,0,Car,"[('crispy chicken', 3), ('tandoori chicken', 3), ('chicken guntur', 2), ('chicken boneless biryani', 3)]",10,164.007,4452,11,3.4325
ORD035076,REST1801,CUST01301,COUR1723,-37.8091245,144.98253569999997,2020-02-05,18:23:44,1,0,Motorbike,"[('chicken guntur', 1), ('crispy chicken', 1), ('naan', 2)]",20,38.368,2686,5,4.2589
ORD274091,REST1801,CUST00594,COUR1926,-37.8138878,144.940334,2020-09-21,19:27:01,1,0,Car,"[('chicken boneless biryani', 2), ('crispy chicken', 3)]",0,83.77,2801,7,4.7211
ORD191560,REST0936,CUST12893,COUR3770,-37.8062874,144.9328554,2020-02-09,04:52:44,0,1,Motorbike,"[('banana chips', 2), ('paratha', 2)]",0,57.72,82,0,3.6885
ORD233114,REST1450,CUST11233,COUR0621,-37.8055534,144.9296537,2020-06-16,10:13:11,0,0,Car,"[('puri sabzi', 1), ('jalebi', 1)]",0,29.8,2903,7,3.5954
ORD051440,REST0936,CUST06325,COUR3609,-37.8066927,144.9559355,2020-07-08,12:03:57,1,0,Motorbike,"[('paratha', 2), ('mocha chingri', 3)]",0,76.93,2408,5,4.5881
ORD023811,REST0936,CUST09046,COUR3853,-37.81469970000001,144.9507609,2020-04-14,08:22:25,0,0,Car,"[('paratha', 3), ('saffron pilaf', 1), ('banana chips', 2), ('tender coconut ice cream', 1)]",0,110.64,2007,5,2.7405
ORD044421,REST1801,CUST06702,COUR4012,-37.8058282,144.9473266,2020-04-11,03:21:45,0,1,Bike,"[('crispy chicken', 1), ('chicken boneless biryani', 2)]",0,58.19,1780,9,4.4323
ORD147718,REST1858,CUST00239,COUR0858,-37.8201146,144.9522794,2020-01-14,10:25:03,0,0,Motorbike,"[('mackerel fry', 3), ('appam', 1), ('crab toast', 3)]",45,40.601,3256,7,3.8892
ORD074264,REST1781,CUST01038,COUR0334,-37.8080228,144.93377990000005,2020-04-07,01:42:51,0,0,Car,"[('coffee', 3), ('pizza', 3)]",0,139.32,3366,8,3.2203
ORD317208,REST1801,CUST10530,COUR3005,-37.8236459,144.98788269999997,2020-08-11,10:17:08,0,0,Bike,"[('panner tikka', 3), ('tandoori chicken', 1), ('chicken guntur', 2)]",40,33.864000000000004,4110,21,4.9219
ORD330799,REST0936,CUST00789,COUR0822,-37.79878660000001,144.9688961,2020-07-04,07:07:15,0,1,Car,"[('paratha', 3), ('begun pora', 1)]",0,53.24,4170,10,4.691
ORD168021,REST1858,CUST13228,COUR3274,-37.8215333,144.9779585,2020-12-10,09:05:56,0,0,Car,"[('roast beef', 2), ('crab toast', 2), ('beef fry', 3)]",45,47.267,867,2,3.3794
ORD090118,REST1858,CUST06001,COUR3915,-37.8245806,145.00054550000004,2020-04-02,05:40:13,0,0,Motorbike,"[('fish', 1), ('beef fry', 3), ('mackerel fry', 1), ('appam', 1)]",10,73.17,1635,3,3.0268
ORD044962,REST1858,CUST09855,COUR0041,-37.8081804,144.97313540000005,2020-07-03,11:16:29,0,0,Motorbike,"[('crab toast', 2), ('roast beef', 2)]",0,53.78,2066,4,3.5369
ORD142985,REST1450,CUST04056,COUR3397,-37.8205224,144.98286869999995,2020-05-06,10:52:44,0,0,Motorbike,"[('jalebi', 2), ('poha', 1), ('samosa', 2), ('puri sabzi', 3)]",0,113.25,2916,6,3.8388
ORD284710,REST1801,CUST06482,COUR2522,-37.8227308,145.0153099,2020-01-11,12:11:52,1,1,Car,"[('tandoori chicken', 2), ('naan', 1)]",0,50.62,6494,16,6.5457
ORD242373,REST1450,CUST04081,COUR3188,-37.8209292,144.98275869999995,2020-12-17,10:56:42,0,0,Motorbike,"[('samosa', 2), ('poha', 3)]",10,45.54,2970,6,3.2122
ORD291263,REST1858,CUST12218,COUR1459,-37.81482929999999,144.9656993,2020-10-10,20:58:01,0,1,Motorbike,"[('roast beef', 2), ('crab toast', 1), ('kerala parotta', 3)]",45,49.308,2177,4,4.4547
ORD080801,REST0936,CUST13823,COUR0920,-37.8200039,144.9582082,2020-06-15,04:56:42,0,0,Bike,"[('tender coconut ice cream', 1), ('mocha chingri', 1)]",40,23.442,3140,16,4.1672
ORD311411,REST1801,CUST03980,COUR1394,-37.8239708,144.9438094,2020-11-21,20:02:38,0,1,Motorbike,"[('naan', 2), ('crispy chicken', 2), ('panner tikka', 3), ('tandoori chicken', 3)]",20,101.12,4108,8,4.2264
ORD217935,REST1781,CUST02870,COUR4313,-37.8165761,144.98014730000003,2020-10-09,18:07:54,1,0,Car,"[('mango salad', 3), ('beef burger', 3), ('chicken burger', 2), ('pizza', 2)]",20,133.24,1820,4,4.5422
ORD236496,REST1781,CUST12706,COUR3326,-37.8035802,144.9497658,2020-02-06,06:07:54,0,0,Car,"[('peri peri chicken wings', 3), ('veggie pizza', 1), ('pizza', 3), ('coffee', 3)]",20,162.416,2321,6,3.5699
ORD034924,REST1781,CUST05165,COUR1180,-37.823809,144.9564558,2020-08-21,12:43:30,1,0,Motorbike,"[('peri peri chicken wings', 3), ('beef burger', 1)]",0,63.38,1808,4,4.61
ORD177502,REST1450,CUST01961,COUR4389,-37.8078584,144.97289630000003,2020-03-02,11:44:10,0,0,Bike,"[('jalebi', 1), ('poha', 3)]",0,35.09,2401,12,3.8024
ORD115338,REST1858,CUST04495,COUR4238,-37.8220486,144.96757309999995,2020-12-31,12:51:25,1,0,Car,"[('roast beef', 3), ('kerala parotta', 1)]",0,77.56,1841,4,4.9194
ORD169185,REST1858,CUST11041,COUR2400,-37.8088654,144.9522245,2020-02-15,22:32:58,0,1,Motorbike,"[('roast beef', 3), ('kerala parotta', 3), ('fish', 3), ('crab toast', 2)]",40,100.398,3842,8,4.3904
ORD308982,REST1858,CUST02476,COUR4477,-37.807337200000006,144.9474761,2020-06-10,13:38:54,1,0,Car,"[('fish', 2), ('appam', 1), ('roast beef', 1)]",0,74.98,4384,11,5.5467
ORD308900,REST1801,CUST02533,COUR0314,-37.81168270000001,144.9393228,2020-09-29,08:30:19,0,0,Bike,"[('chicken guntur', 2), ('panner tikka', 2), ('tandoori chicken', 1), ('crispy chicken', 2)]",0,75.86,2991,15,3.9493
ORD075278,REST0936,CUST00940,COUR0933,-37.8086826,144.9784657,2020-11-08,11:16:29,0,1,Motorbike,"[('mocha chingri', 1), ('saffron pilaf', 1), ('paratha', 1)]",0,52.39,4354,9,4.3237
ORD020193,REST1450,CUST05487,COUR3222,-37.80367260000001,144.9556161,2020-11-25,16:21:05,0,0,Car,"[('poha', 2), ('rasgulla', 3), ('puri sabzi', 1)]",40,61.356,1937,5,3.0463
ORD121467,REST1781,CUST10504,COUR2530,-37.8030788,144.9984441,2020-03-22,00:11:52,0,1,Bike,"[('pizza', 2), ('burgers', 1), ('mango salad', 1), ('coffee', 3)]",0,144.45,4031,20,5.9667
ORD225470,REST1801,CUST04639,COUR3297,-37.8068662,144.93878059999997,2020-08-25,09:05:56,0,0,Motorbike,"[('chicken guntur', 1), ('chicken boneless biryani', 1)]",20,25.784,3059,6,3.2187
ORD160611,REST1781,CUST02293,COUR4803,-37.8176948,144.9705367,2020-06-29,03:41:32,0,0,Car,"[('mango salad', 2), ('coffee', 2), ('peri peri chicken wings', 1), ('beef burger', 3)]",10,122.904,1087,3,3.036
ORD342169,REST1801,CUST00932,COUR2471,-37.8119875,144.96157140000005,2020-12-13,07:42:51,0,1,Car,"[('naan', 2), ('tandoori chicken', 2), ('crispy chicken', 1)]",20,60.984,1668,4,3.997
ORD194978,REST1801,CUST07934,COUR0100,-37.8152001,144.9748161,2020-09-18,03:05:56,0,0,Bike,"[('panner tikka', 2), ('chicken guntur', 3)]",0,40.91,2605,13,3.9742
ORD234341,REST1801,CUST10875,COUR1074,-37.8111233,144.96912890000004,2020-09-16,11:08:34,0,0,Motorbike,"[('naan', 3), ('chicken guntur', 2)]",0,57.52,1965,4,3.3217
ORD020697,REST0936,CUST09442,COUR1402,-37.805365,144.9735373,2020-10-11,05:12:31,0,1,Car,"[('begun pora', 2), ('tender coconut ice cream', 3), ('cheesecake', 2), ('saffron pilaf', 2)]",0,180.78,3988,10,4.7872
ORD274916,REST1801,CUST03422,COUR0840,-37.8159094,144.98727639999996,2020-04-18,16:09:13,0,1,Motorbike,"[('hyderabadi biryani', 1), ('chicken boneless biryani', 1)]",40,18.204,3824,8,4.4311
ORD029807,REST1781,CUST01032,COUR0090,-37.80499620000001,144.9273434,2020-10-29,12:00:00,1,0,Bike,"[('beef burger', 2), ('peri peri chicken wings', 1), ('veggie pizza', 1), ('coffee', 1)]",0,67.99,4038,20,6.6681
ORD181545,REST1858,CUST07861,COUR3501,-37.8163994,144.9839803,2020-05-18,05:24:23,0,0,Bike,"[('beef fry', 1), ('fish', 2)]",0,44.58,767,4,3.4895
ORD024884,REST1858,CUST12745,COUR2055,-37.8160858,144.9287497,2020-02-29,21:37:34,0,1,Car,"[('fish', 3), ('beef fry', 1), ('mackerel fry', 3)]",20,78.8,6485,16,5.421
ORD011811,REST1450,CUST11787,COUR3675,-37.80427750000001,144.96893630000002,2020-03-09,11:16:29,0,0,Car,"[('rasgulla', 3), ('puri sabzi', 1)]",0,85.58,2697,6,3.5029
ORD088264,REST1858,CUST07532,COUR4190,-37.816154,144.9454322,2020-12-26,02:46:09,0,1,Motorbike,"[('roast beef', 1), ('beef fry', 1), ('fish', 2), ('crab toast', 2)]",0,77.12,4091,8,4.6397
ORD092871,REST1801,CUST09764,COUR2509,-37.821586,144.94507219999997,2020-11-27,14:42:11,0,0,Car,"[('panner tikka', 2), ('chicken guntur', 2), ('crispy chicken', 2)]",10,51.264,3529,8,3.2768
ORD210844,REST1858,CUST00050,COUR1620,-37.80130820000001,144.9575454,2020-01-03,01:07:15,0,0,Car,"[('roast beef', 2), ('appam', 2), ('kerala parotta', 1), ('fish', 2)]",0,129.94,3735,9,3.8214
ORD011175,REST1858,CUST11427,COUR4817,-37.8055432,144.9369369,2020-12-14,22:17:08,0,0,Car,"[('appam', 2), ('crab toast', 2), ('fish', 3), ('kerala parotta', 2)]",0,129.53,5296,13,4.6922
ORD326021,REST1858,CUST06822,COUR1782,-37.8040317,144.96953530000005,2020-02-05,03:41:32,0,0,Car,"[('fish', 1), ('mackerel fry', 1)]",45,16.093,2662,6,3.3224
ORD180011,REST0936,CUST02343,COUR3063,-37.8065438,145.0107074,2020-07-18,12:39:33,1,1,Bike,"[('tender coconut ice cream', 3), ('saffron pilaf', 1)]",45,45.628,7524,38,8.9492
ORD192422,REST1801,CUST09370,COUR1175,-37.8097211,144.972937,2020-09-14,16:13:11,0,0,Bike,"[('crispy chicken', 2), ('hyderabadi biryani', 3), ('chicken boneless biryani', 3), ('tandoori chicken', 1)]",0,135.5,2032,10,3.4299
ORD308555,REST1781,CUST11385,COUR1130,-37.7994302,144.9801078,2020-04-04,05:08:34,0,1,Motorbike,"[('coffee', 2), ('peri peri chicken wings', 1)]",10,57.555,2694,5,4.2401
ORD319679,REST1801,CUST12044,COUR0471,-37.8081012,144.96032219999995,2020-04-03,09:01:58,0,0,Car,"[('crispy chicken', 2), ('tandoori chicken', 1)]",40,26.688,1095,3,2.6691
ORD071523,REST0936,CUST04213,COUR3958,-37.8019187,144.9563717,2020-08-13,20:50:06,0,0,Car,"[('paratha', 3), ('tender coconut ice cream', 3), ('cheesecake', 3)]",0,125.79,2701,6,3.4829
ORD205116,REST0936,CUST12231,COUR4001,-37.8025777,144.9456244,2020-07-04,20:34:17,0,1,Motorbike,"[('mocha chingri', 3), ('cheesecake', 2), ('paratha', 3)]",10,100.467,1614,3,4.1467
ORD343154,REST1450,CUST01104,COUR3959,-37.8106519,145.01599869999995,2020-10-13,00:15:49,0,0,Car,"[('jalebi', 3), ('poha', 1)]",20,30.84,6390,15,4.3942
ORD270130,REST0936,CUST01527,COUR2713,-37.827069,144.98683119999995,2020-08-23,03:29:40,0,1,Bike,"[('saffron pilaf', 3), ('mocha chingri', 2), ('begun pora', 1), ('paratha', 1)]",10,129.006,6127,31,6.7262
ORD320442,REST1801,CUST11436,COUR2270,-37.8032103,144.93564530000003,2020-05-25,02:34:17,0,0,Bike,"[('naan', 2), ('chicken boneless biryani', 3)]",45,51.557,2983,15,4.1678
ORD276597,REST1858,CUST02551,COUR0726,-37.80422,145.0024501,2020-07-28,00:35:36,0,0,Motorbike,"[('beef fry', 2), ('mackerel fry', 2), ('appam', 2), ('crab toast', 3)]",0,102.81,3199,6,3.5463
